NUM,name,address,type,lat,lon,id,label
0,周黑鸭(武汉火车站一店),湖北省武汉市洪山区友谊大道武汉火车站3层候车厅B区1号,中餐,30.61025382,114.4194095,8,1
1,武汉火车站-停车场,武汉市洪山区武汉站东一路,停车场,30.61137742,114.4209826,14,5
2,武汉火车站-停车场,湖北省武汉市洪山区高铁南一路,停车场,30.6073471,114.4196351,15,5
3,武汉火车站-停车场,湖北省武汉市洪山区白云路,停车场,30.60680607,114.4231232,16,5
4,顾高路仓库,湖北省武汉市江岸区武汉天地10号楼,公司,30.610057,114.307044,22,7
5,德克士(武汉火车站店),洪山区友谊大道杨春湖东侧武汉站一层,休闲餐饮,30.60991272,114.417518,41,2
6,武汉航海宾馆(武昌火车站店),"湖北省武汉市武昌区中山路572号,武昌火车站西广场(武昌火车站对面)号(武昌火车站对面)",中餐,30.52939496,114.3083737,54,1
7,深圳虚拟大学-园产业化基地,武汉市江岸区黄孝河路特1号红星美凯龙全球家居生活MallF4,公司,30.62477352,114.2816508,59,7
8,武汉火车站4号停车场,湖北省武汉市洪山区团结大道,停车场,30.61232809,114.4207676,87,5
9,武汉火车站-停车场,湖北省武汉市洪山区团结大道,停车场,30.61269051,114.4174216,88,5
10,武汉火车站-停车场,和谐路与高铁南一路交叉口东北150米,停车场,30.6062146,114.422268,90,5
11,武汉热干面(白云路),湖北省武汉市洪山区友谊大道杨春湖东侧武汉站F1层,中餐,30.61090443,114.4192903,95,1
12,深圳市高特佳投资集团有限公司,湖北省武汉市汉阳区,公司,30.56386249,114.2682242,111,7
13,银朱(北京)投资顾问公司深圳分公司,盘龙城经济开发区盘龙城F学府A2-14,公司,30.73527102,114.2434073,131,7
14,陈记炸酱面(武汉车站铁路派出所西南),武汉市洪山区友谊大道杨春湖东侧,中餐,30.61107686,114.4184922,141,1
15,中国石化(杨春湖加油站),武汉市洪山区武汉火车站团结大道厂前肖家湾105号,加油站,30.61316391,114.4255194,147,6
16,康师傅私房牛肉面(火车站店),武汉市洪山区武汉火车站武广高速铁层候车厅A区2504号,中餐,30.6100371,114.4182189,157,1
17,麦当劳(武昌火车站餐厅),是武汉市武昌区中山路武昌火车站交通综合体B1层架空城(近西出站口),休闲餐饮,30.53202532,114.3118808,205,2
18,锦江之星酒店(发展大道店)-停车场,湖北省武汉市江汉区发展大道215号,停车场,30.61936357,114.2584764,214,5
19,武味周(汉口火车站9店),湖北省武汉市江汉区汉口火车站二楼候车厅中央通道两侧A亭,中餐,30.62077539,114.2498845,219,1
20,华盛奥特莱斯购物中心,湖北省武汉市黄陂区汉口北大道武汉盘龙城经济开发区,购物中心,30.70967876,114.321399,220,3
21,蔡林记热干面馆(武昌火车站店),武汉市武昌区武汉火车站1楼,中餐,30.53211716,114.3111292,272,1
22,德克士(武昌火车站三店),湖北省武汉市武昌区武昌火车站西广场2层,休闲餐饮,30.53279711,114.3122022,277,2
23,聚湘缘酒家,武汉市江汉区银墩路68号,中餐,30.61998133,114.2482283,279,1
24,小胡鸭(武昌火车站店),湖北省武汉市武昌区武昌火车站西广场地下室空间A3商铺,中餐,30.53180856,114.3115118,289,1
25,良品铺子(武昌火车站一分店),武汉市江岸区火车站地下商城B4号铺面,中餐,30.60043132,114.2980253,298,1
26,中国移动(集团客户体验中心),湖北省武汉市江汉区发展大道180号,公司,30.61628,114.2510226,302,7
27,鑫源平价购物广场,湖北省武汉市江汉区兴城大厦B座(欧亚达国际广场东南),便利店,30.61629442,114.249356,319,4
28,肯德基(汉口火车站餐厅),湖北省武汉市江汉区金墩街财神广场1-2层,休闲餐饮,30.61999997,114.2526016,335,2
29,汉味周黑鸭(武昌火车站南店),湖北省武汉市武昌区中山路532号武昌火车站同侧三镇民生甜食馆一楼,中餐,30.53030829,114.3095336,346,1
30,良品铺子(汉口火车站店),湖北省武汉市江汉区金家墩特1号汉口站B1,中餐,30.62003233,114.2503408,347,1
31,李先生(武昌火车站店),湖北省武汉市武昌区中山路武昌站B1层,中餐,30.53204706,114.3117415,357,1
32,金童子(武昌火车站二店),武汉市武昌区中山路武昌站B1层,中餐,30.53190729,114.3116117,363,1
33,顶香牛骨汤(静安路店),武汉市武昌区静安路8号静安上城(近简朴寨旁岗亭),中餐,30.52657666,114.3162431,375,1
34,家义住宿酒家(武昌火车站店),湖北省武汉市武昌区紫阳东路156号(宏基客运站加油站旁),中餐,30.53500691,114.3129979,383,1
35,香港正烧记(汉口火车站店),武汉市江汉区发展大道欧亚达国际广场B1层,中餐,30.61660171,114.2483287,393,1
36,陈记炸酱面(武昌火车站店),湖北省武汉市武昌区中山路武昌站B1层,中餐,30.53171989,114.310751,395,1
37,老济南黄焖鸡米饭(嘉叶店),湖北省武汉市武昌区中山路496号(嘉叶美食广场),中餐,30.53506348,114.3106397,399,1
38,如家快捷酒店(金墩街店)-停车场,湖北省武汉市江汉区汉口站如家快捷酒店,停车场,30.62088792,114.2526901,418,5
39,德克士(武昌火车站店),武昌区火车站地下商城A区A1号,休闲餐饮,30.53073306,114.3108489,491,2
40,周黑鸭(汉口火车站一店),江汉区金家墩特1号汉口火车站2楼候车室,中餐,30.62051015,114.2496063,531,1
41,汉口火车站南广场-地下停车库,江汉区发展大道,停车场,30.61780227,114.2511404,576,5
42,新车站餐馆,湖北省武汉市黄陂区木兰文化生态旅游区蔡店客运站,中餐,31.28654722,114.2941884,637,1
43,上海天擎信息技术有限公司,武汉市黄陂区黄陂大道387号,公司,30.88229667,114.3697836,656,7
44,福莱德汉堡(车站店),湖北省武汉市新洲区平江西路64,休闲餐饮,30.66417085,114.5580923,674,2
45,中国石化(机场西服务区加油站),湖北省武汉市黄陂区武汉盘龙城经济开发区,加油站,30.7330612,114.2274436,708,6
46,口味堂(机场河店),湖北省武汉市江汉区汉口机场河285号小天鹅宾馆旁,中餐,30.60324716,114.2571474,711,1
47,机场三加油站,S19机场二高速附近,加油站,30.71375535,114.1883878,744,6
48,湖北机场集团公司机场建设部,湖北省武汉市黄陂区武汉天河国际机场,公司,30.78186438,114.2149468,748,7
49,深圳市欣豪运通物流有限公司,金福路8号,公司,30.58697669,114.1582794,785,7
50,武汉天河国际机场-地下停车场,湖北省武汉市黄陂区机场大道,停车场,30.77180615,114.2060184,818,5
51,武汉天河国际机场-T2停车场,湖北省武汉市黄陂区天河机场路武汉天河国际机场2号航站楼,停车场,30.7716375,114.2064272,822,5
52,武汉天河机场园林绿化工程公司,武汉市黄陂区机场北三道,公司,30.78134477,114.2154259,848,7
53,武汉天河机场公共区管理部,湖北省武汉市黄陂区,公司,30.78137732,114.2154213,860,7
54,天河机场航空安全保卫分公司,湖北省武汉市黄陂区机场北三道民航湖北机场公安局西南,公司,30.78053533,114.2150567,866,7
55,周黑鸭(天河机场一店),武汉市黄陂区机场大道武汉天河国际机场T2F2,中餐,30.77285906,114.2063288,899,1
56,周黑鸭(天河机场二店),湖北省武汉市黄陂区机场大道武汉天河国际机场T3航站楼,中餐,30.77161774,114.20508,907,1
57,中国石油(武汉机场东加油站),湖北省武汉市黄陂区中国石油武汉机场东加油站,加油站,30.71503361,114.1905667,923,6
58,卡尔顿酒店(天河机场店),天河街春建里44号,中餐,30.80402136,114.2228988,957,1
59,机场餐厅,武汉市建设大道433号,中餐,30.58694277,114.2442139,979,1
60,武汉天河国际机场-停车场,湖北省武汉市黄陂区天河机场路,停车场,30.7709434,114.2049752,992,5
61,天河机场飞行区管理部助航灯光室,武汉东方航空食品有限公司附近,公司,30.78246683,114.2154733,998,7
62,武汉机场航空货站,黄陂区天河机场北连接线机场航空站,公司,30.78834046,114.2204371,1032,7
63,85度C(凌兆路店),湖北省武汉市蔡甸区东风大道816号,休闲餐饮,30.46335999,114.0810394,1033,2
64,好食汇(武汉天河机场店),天河国际机场T2航站楼2层出发大厅,中餐,30.77253141,114.2054972,1051,1
65,武汉天河机场二号航站楼-停车场,武汉市黄陂区,停车场,30.77307037,114.2072409,1068,5
66,真功夫(武汉天河机场店),武汉市黄陂区机场大道武汉天河国际机场T2F1,中餐,30.77176554,114.2049757,1070,1
67,首都机场广告有限公司湖北分公司,发展大道164号武汉科技大厦18层,公司,30.61433229,114.244876,1133,7
68,武汉天河机场路投资发展有限责任公司,湖北省武汉市黄陂区天河机场高速收费站南100米,公司,30.71598115,114.1879064,1135,7
69,孙先生(机场店),机场大道999号,中餐,30.7732485,114.2060812,1160,1
70,湖北机场集团公司,天河街,公司,30.77807416,114.2131729,1167,7
71,天河机场倒班楼麻辣烫,南四路,中餐,30.76390243,114.1952097,1190,1
72,中国航空港建设总公司华中公司,建设大道645号凯风大厦,公司,30.59558938,114.2552745,1213,7
73,北京首都机场餐饮发展公司湖北分公司,天河国际机场内,公司,30.76243837,114.1988403,1216,7
74,武汉天河机场二号航站楼二号贵宾区-停车场,湖北省武汉市黄陂区机场大道,停车场,30.77380647,114.2069091,1218,5
75,武汉黑鸭,武汉市黄陂区机场大道武汉天河国际机场T2F1,中餐,30.7726309,114.2061254,1229,1
76,天河机场路投资发展有限责任公司,盘龙城开发区宋家岗立交桥西侧武汉天河机场路,公司,30.72930316,114.2274939,1231,7
77,武汉东方航空食品有限公司,湖北省武汉市黄陂区天河机场内,公司,30.78129416,114.2144252,1253,7
78,麦麦面(天河机场2店),2号航站楼隔离区B指廊,休闲餐饮,30.77302212,114.2070986,1258,2
79,武汉麦肯盖登广告有限公司,武汉市江汉区汉口青年路235号机场河嘉颐新都,公司,30.60172565,114.2573186,1273,7
80,机场河湖北教育出版社,青年路277号,公司,30.60230232,114.2569956,1276,7
81,王记机场麻辣烫,天河道与河露街交叉口东50米,中餐,30.80526418,114.2142436,1277,1
82,武汉东航空港食品有限公司,黄陂区机场北二道天河国际机场内,公司,30.78105235,114.2145092,1291,7
83,中国南方航空武汉航空食品厂,湖北省武汉市黄陂区机场大道中国南方航空武汉航空食品厂,公司,30.78018617,114.2172438,1293,7
84,西堤岛,武汉天河国际机场T2航站楼2层夹层,休闲餐饮,30.77231561,114.2056965,1305,2
85,武汉机场路发展有限公司,常青北路268号,公司,30.64436602,114.2266187,1306,7
86,青山交通事故违法车辆专用停车场,冶金大道与工人村路交叉口西100米,停车场,30.62932181,114.4187821,1408,5
87,生态停车场,武汉市青山区冶金大道82号,停车场,30.62961538,114.4178769,1409,5
88,武钢厂-前停车场,武汉钢铁公司附近,停车场,30.62056306,114.4327199,1410,5
89,厂前建材钢材综合大市场-停车场,武汉市洪山区,停车场,30.62418217,114.4164163,1411,5
90,奶茶嫁给粉,湖北省武汉市洪山区团结大道,休闲餐饮,30.61151348,114.4176744,1418,2
91,武汉火车站-停车场,白云路附近,停车场,30.60905023,114.4220574,1420,5
92,武汉站-1号停车场,湖北省武汉市洪山区友谊大道杨春湖东侧武汉站,停车场,30.61152412,114.4177056,1423,5
93,北洋桥鑫园二期-停车场,湖北省武汉市洪山区北洋桥路,停车场,30.61885733,114.4066253,1426,5
94,武汉站-3号停车场,武汉市洪山区武汉火车站,停车场,30.60987163,114.4221906,1427,5
95,武汉站-2号停车场,湖北省武汉市洪山区盛平路,停车场,30.60801436,114.4184388,1436,5
96,武汉站-地下停车场,湖北省武汉市洪山区白云路,停车场,30.60677414,114.4231693,1438,5
97,东方丽锦东区-停车场,湖北省武汉市洪山区智和路,停车场,30.61831423,114.3961778,1443,5
98,白马馨居一期西区-停车场,湖北省武汉市洪山区欢乐大道,停车场,30.60220671,114.4101608,1446,5
99,沙湖果品批发市场-停车场,落雁路东100米,停车场,30.59661805,114.4251453,1447,5
100,天兴洲绿岛小区-停车场,武汉市洪山区,停车场,30.60583551,114.3995569,1449,5
101,中国石化(红钢城加油站),冶金大道34号,加油站,30.6324826,114.4016746,1452,6
102,中国石油(建十加油站),武汉市青山区建设十路89号,加油站,30.64605056,114.4047033,1453,6
103,中国石化(厂前路加油站),青山区厂前路和平乡龚家岭村,加油站,30.6010474,114.4335951,1454,6
104,中国石化加油站,湖北省武汉市洪山区武汉市公安局化学工业区分局八吉府派出所,加油站,30.64717174,114.4551503,1455,6
105,加油站(景胜花园东),武汉市洪山区和平乡武丰村26号,加油站,30.60968313,114.3823185,1456,6
106,武汉瑞福德工业园,武汉市蔡甸区一零四省道,公司,30.47916831,113.9729896,1466,7
107,武汉铁路局武昌东货运营销分中心,冶金大道57号,公司,30.63212791,114.4123002,1498,7
108,中共武汉阀门水处理机械股份有限公司委员会,冶金大道64号中南地区阀门水处理机械工业园,公司,30.63064677,114.4088639,1531,7
109,武汉钢铁(集团)公司工程管理部,冶金大道291附近,公司,30.62512029,114.4247775,1545,7
110,嘉定工业区虬桥工业园,武汉市洪山区团结大道1049号,公司,30.59377935,114.3557874,1652,7
111,中美宏凯星国际传媒公司,十大家898号,公司,30.66397044,114.3229985,1661,7
112,武钢一招,武汉市青山区红钢2街27号,公司,30.64713377,114.3970392,1903,7
113,武汉欢乐谷-游客中心,东湖生态旅游风景区欢乐大道196号武汉欢乐谷梦想大道内,公司,30.59651833,114.3887411,2093,7
114,沈家小院,工业二路36附1,中餐,30.62271412,114.3902795,2095,1
115,丽华园(工业二路店),工业二路17号,中餐,30.63002063,114.3915541,2119,1
116,肯德基(武汉火车站餐厅),武汉市武汉火车站核心商业区一楼(西出站口处),休闲餐饮,30.60952483,114.4204961,2125,2
117,武汉市和平公园-花卉基地,湖北省武汉市青山区新沟桥街道建设五路跟红钢二街交叉口,公司,30.64016334,114.3837399,2127,7
118,丽华园(沿港路店),武汉青山区沿港路23号(近青山区少年宫),中餐,30.63557748,114.3991117,2129,1
119,鹿鸣春,工业三路68,中餐,30.63394214,114.394807,2135,1
120,舍得火锅(红钢城总店),市政侧路52号速8酒旁,中餐,30.63751991,114.3973271,2137,1
121,凯撒尔新疆特色主题餐厅,友谊大道109街921号(109街坊南门旁),中餐,30.62193178,114.3929011,2139,1
122,清山小镇创新菜馆(冶金大道店),湖北省武汉市青山区冶金大道3号(工业二路口),中餐,30.63289696,114.3903898,2140,1
123,重庆辣子鱼平价美食城,106街社区北门,中餐,30.62369472,114.3970586,2143,1
124,老严快餐家常菜馆,湖北省武汉市青山区工人村绿地香树花城东(工人村路东),中餐,30.63838209,114.4214513,2145,1
125,精典厨房(工业四路店),工业四路25号武装部旁,中餐,30.62423516,114.3997491,2146,1
126,简朴寨(工业二路店),湖北省武汉市青山区现代梅竹园111栋69-1号,中餐,30.62122477,114.3900903,2148,1
127,乡之厨土菜馆,湖北省武汉市洪山区光大北洋桥粮油综合市场A8,中餐,30.6150091,114.4081339,2149,1
128,东来顺(青山店),青山区工业大道36号(和平乡政府旁),中餐,30.62681073,114.3819602,2150,1
129,欣欣半边鱼,和平大道1087附24号,中餐,30.6436313,114.399982,2154,1
130,荆楚食府,武汉火车站东广场杨春湖客运换乘中心大楼二楼(高铁站旁),中餐,30.60669826,114.421602,2156,1
131,品尚豆捞坊(工业二路店),工业二路17号,中餐,30.62992265,114.3908507,2160,1
132,彩月轩家常菜(北洋桥店),杨春湖路E15号(北洋桥村小区东门旁),中餐,30.61650749,114.4080336,2161,1
133,老妈厨房(工业二路),湖北省武汉市青山区钢花东村物业管理有限公司112物业小区,中餐,30.62212777,114.3902681,2163,1
134,老乡长(友谊大道店),湖北省武汉市青山区友谊大道1190,中餐,30.62131863,114.3929623,2165,1
135,农家大院(建设四路店),建设三路64号(近友谊大道),中餐,30.62165434,114.3800426,2167,1
136,御品猪蹄(工业三路),工业三路32附7,中餐,30.63035363,114.3948573,2169,1
137,曼岛餐厅,湖北省武汉市洪山区杨春湖客运站(高铁站东广场旁)曼岛大酒店2楼,休闲餐饮,30.60637719,114.4218513,2171,2
138,鑫龙潭大酒店,武汉市友谊大道907号,中餐,30.62109035,114.3912411,2178,1
139,青莲酒家(和平店),武汉青山区工业大道15号114街转角,中餐,30.62587209,114.3819902,2179,1
140,三镇民生甜食馆(二十三街分店),工业三路34附1,中餐,30.62987386,114.3948074,2182,1
141,华莱士汉堡店(工业三路店),工业三路东方丽锦东区丽红超市对面,休闲餐饮,30.61875075,114.3952545,2184,2
142,凯凯家常菜馆,鄂州街5附7号,中餐,30.63130399,114.3901852,2188,1
143,金边活鲜屋,武汉市青山区现代梅竹园东门,中餐,30.62083047,114.3900578,2189,1
144,土家吊锅寨(青山店),友谊大道1380号,中餐,30.62259591,114.4077538,2191,1
145,8090冷锅香串串,湖北省武汉市青山区恩施街26附6,中餐,30.62343919,114.3911501,2192,1
146,澎湖湾菜馆,工业一路25附2号,中餐,30.62582934,114.3861586,2195,1
147,黄记煌三汁焖锅(众圆广场店),武汉市青山区和平大道959号武商众圆广场F5,中餐,30.62846492,114.3708178,2198,1
148,川湘居(友谊大道店),112街39门1号工业一路天桥下,中餐,30.62191974,114.3865089,2199,1
149,潜江五七油焖大虾(铁机村店),友谊大道东方红村1190号(老乡长旁),中餐,30.62150796,114.3927291,2204,1
150,尚渔味时尚烤鱼(众圆广场店),武汉市青山区和平大道959号武商众圆广场F5,中餐,30.62926111,114.3712194,2207,1
151,派乐汉堡(工业三路店),工业三路104街坊新安小区3栋1层52号,休闲餐饮,30.62637722,114.3952448,2209,2
152,派乐汉堡(建设十一路店),建设十一路青宜居小区13-2,休闲餐饮,30.64719016,114.4124073,2210,2
153,老成都冷锅鱼,湖北省武汉市青山区市政侧路2附20,中餐,30.6372193,114.3931648,2213,1
154,瓦萨奇鲶鱼王,武汉市青山区建设九路8附15号(青山图书馆对面),中餐,30.64498612,114.4006264,2214,1
155,冷锅鱼活鱼火锅,市政侧路2附29号,中餐,30.63759484,114.3939216,2215,1
156,玉林串串香(和平大道店),和平大道红钢城ATT时尚广场2楼(近建设七路、工业三路、和平大道),中餐,30.63984964,114.3944264,2216,1
157,七在乐里(青山随州街店),"工业大道5号(随州街与工业路交叉口,近中国一冶)",中餐,30.62780686,114.3820269,2217,1
158,鲜肉大水饺,武汉青山区工业一路黄州街(钢花110街坊南门),中餐,30.62572806,114.3868536,2222,1
159,罗记炒海鲜,青山建设七路红钢城ATT时尚广场一楼,中餐,30.63977781,114.3947071,2223,1
160,烤吃佬烤鸭脖(众圆店),武汉市青山区和平大道959号武商众圆广场B1,中餐,30.6292599,114.3713502,2232,1
161,香香烧烤(青山恩施街店),恩施街29附10号,中餐,30.6237058,114.3972074,2233,1
162,农家小院融合餐厅（众圆店）,和平大道建设二路众圆广场5楼,中餐,30.62799031,114.3714572,2235,1
163,靓嫂湖南菜,建设七路2号附2号(青山交通运输局旁),中餐,30.64706748,114.3893339,2236,1
164,红大双味,工业三路6号,中餐,30.63779049,114.3946956,2240,1
165,加勒比号餐厅,冶金大道9号健吾公馆A栋座1-3层A2,休闲餐饮,30.63612839,114.3859148,2241,2
166,好客来,武汉市青山区21街12门3号,休闲餐饮,30.63347599,114.396498,2244,2
167,如意馄饨(建设七路店),建设七路红钢城ATT时尚广场1楼,中餐,30.63992695,114.3944138,2252,1
168,派乐汉堡(青山48中店),新沟桥和平大道1290号A座7号,休闲餐饮,30.63775272,114.3890968,2253,2
169,麻辣快乐营(武商众圆广场店),武汉市青山区和平大道959号武商众圆广场F5,中餐,30.6292816,114.3707777,2256,1
170,锅锅香食府(NO.1),工业三路18附7号,中餐,30.63603122,114.3948168,2260,1
171,友谊798,青山区友谊大道813号,中餐,30.61921212,114.3748436,2262,1
172,常相聚油炸店,钢花115街恩施街10附3号(近豆蔻园新世纪幼儿园对面),中餐,30.62344064,114.385679,2270,1
173,三毛餐厅,黄州街40号(青山区工业三路黄州街交接口),中餐,30.62551482,114.3951279,2273,1
174,艳子餐厅,黄州街37附4,中餐,30.62577477,114.3940177,2279,1
175,派乐汉堡(119街店),辽宁街5附1号,休闲餐饮,30.62092607,114.3729725,2287,2
176,多利亚意式欢乐餐厅(众圆广场店),武汉市青山区和平大道959号武商众圆广场F5,休闲餐饮,30.62978353,114.371536,2295,2
177,食尚57铁板烧(众圆广场店),武汉市青山区和平大道959号武商众圆广场F5,休闲餐饮,30.62877725,114.370446,2296,2
178,晶银大酒店-西餐厅,武汉市青山区五一街坊8号江城广场A座1层,休闲餐饮,30.62757161,114.3696829,2302,2
179,豪庭时尚餐厅,武汉洪山区工业大道仁和路98号天际万豪大酒店1楼,休闲餐饮,30.61697917,114.3813933,2315,2
180,御品轩(江南春城店),本溪街11号(江南春城北门斜对面),中餐,30.63193578,114.3740847,2320,1
181,福哇酒楼,友谊大道823附1号,中餐,30.62021108,114.376721,2325,1
182,大大顺酒家,建设八路9附6号,中餐,30.64470542,114.3964359,2326,1
183,七合丰,武汉市青山区和平大道959号武商众圆广场B1,中餐,30.62956312,114.3719396,2333,1
184,肯德基宅急送(玲珑汇餐厅店),青山区友谊大道946号建设二路路口,休闲餐饮,30.61923705,114.376329,2338,2
185,成都柒号,武汉市青山区和平大道959号武商众圆广场B1,中餐,30.62926826,114.3719077,2341,1
186,春林凉面,建港南街与建设三路交叉口东50米,中餐,30.62570584,114.3774953,2342,1
187,洪湖浪水鱼城,武汉市青山区康馨大厦1楼,中餐,30.63153068,114.3784207,2345,1
188,徐老二生活菜馆,工业二路3附4号,中餐,30.63440444,114.3907959,2347,1
189,圣娃子酒家,恩施街26附3号,中餐,30.62345786,114.3909779,2350,1
190,蓉诚川味面馆,黄州街30附6号,中餐,30.62551677,114.3916777,2358,1
191,派乐汉堡(金地自在城),湖北省武汉市洪山区和平街武丰村金地自在城一期4栋1-2层6号商房,休闲餐饮,30.60897167,114.3793557,2361,2
192,豪吉家(武商众圆广场店),武汉市青山区和平大道959号武商众圆广场F4,休闲餐饮,30.62981972,114.3721905,2368,2
193,麻辣快乐营炊管家鲜鱼府,湖北省武汉市青山区建设一路10附7,中餐,30.62404638,114.3674803,2374,1
194,玲玲菜馆(沿港路),20街沿港路108门1号(科技苑社区旁),中餐,30.63661046,114.3981662,2377,1
195,红巴月老火锅(大洲店),友谊大道大洲村玲珑汇1栋2层2室,中餐,30.6191024,114.3756257,2379,1
196,古丽古力西域风情自助火锅,湖北省武汉市青山区和平大道957武商众圆广场5层,休闲餐饮,30.62710247,114.3699886,2391,2
197,都市闲情,冶金大道32附1号,休闲餐饮,30.63274146,114.4008587,2394,2
198,一品香红油热干面,湖北省武汉市青山区钢花新村113物业小区(南干渠游园西南),中餐,30.62602421,114.3862876,2395,1
199,速味居黄焖鸡米饭(建七店),红钢城5街34门3号,中餐,30.63742061,114.3948376,2396,1
200,拓龙酒家,工业三路27街武钢交运工贸公司门面,中餐,30.62922417,114.3917674,2411,1
201,红九豆皮店,建设九路8附3号,中餐,30.64557888,114.4003562,2412,1
202,天天热干面,武汉市青山区工业二路29附3号,中餐,30.62449641,114.3907762,2413,1
203,陈记特色早点,友谊大道1198附近,中餐,30.62081101,114.3932205,2414,1
204,韩泰美食家餐厅(武商众圆广场店),武汉市青山区和平大道959号武商众圆广场B1,中餐,30.62915518,114.3711684,2416,1
205,四川麻辣烫(工业一路店),工业一路,中餐,30.62916493,114.3860665,2419,1
206,三毛餐厅(恩施街),湖北省武汉市青山区恩施街23附27,中餐,30.62371924,114.394107,2423,1
207,小福园川菜馆,黄州街40附11号,中餐,30.62549531,114.396087,2425,1
208,曾麻子热干面(建设四路店),本溪街江南春城15栋8号(近普仁医院),中餐,30.6328581,114.3761618,2433,1
209,高姐红油热干面,武汉市青山区工业一路110小区南小门旁(近武钢十九小和108中百仓储),中餐,30.62577244,114.3894409,2436,1
210,一家人餐厅(建设二路),建设二路30号附3号,中餐,30.63069296,114.3672149,2451,1
211,天紫食府,恩施街20附2,休闲餐饮,30.62343785,114.3888582,2453,2
212,邻家小厨,湖北省武汉市青山区112街东门,中餐,30.62284258,114.3901322,2465,1
213,高味美黄焖鸡米饭,武汉市青山区红钢四街3附5,中餐,30.64230153,114.3876666,2469,1
214,盛世金威(钢洲店),祥丰路3,中餐,30.61758612,114.3734894,2470,1
215,张记家常菜馆,辽宁街10号,中餐,30.62612065,114.3813202,2482,1
216,正宗东北老菜馆,吉林街11附7,中餐,30.62515456,114.3715947,2489,1
217,新加坡红豆酥,红钢三街14附11号,休闲餐饮,30.64298898,114.392063,2490,2
218,鑫鸭湾,吉林街20附3号(兰亭雅居东),中餐,30.62701598,114.3758438,2491,1
219,众品香美食(建设六路店),建设六路2附3-附4,中餐,30.64165412,114.3875698,2501,1
220,众品香美食(一二零街店),湖北省武汉市青山区辽宁街8附近,中餐,30.62124142,114.373869,2503,1
221,湘村灶台(红钢城店),和平大道建设七路与建设六路高架桥下,中餐,30.63870886,114.3900616,2509,1
222,外婆农家菜(朝阳街),建设三路25号,中餐,30.62610433,114.3779625,2512,1
223,好味道面食馆,建设二路28附3,中餐,30.63151169,114.3667048,2516,1
224,理想家常菜(建设三路),建设三路10之附7附8,中餐,30.63310468,114.3707857,2525,1
225,雅丽餐厅,建设一路14号,中餐,30.62264213,114.3685353,2535,1
226,华人煲仔饭(建二店),建设二路51街9门5号,中餐,30.62875401,114.3689551,2556,1
227,鑫园餐厅,湖北省武汉市洪山区祥丰路100,中餐,30.61532113,114.3744757,2559,1
228,雅阁,建设八路1附17号,休闲餐饮,30.64741378,114.3947108,2571,2
229,杨家寨家常菜馆,建设六路3附6号,中餐,30.64268186,114.3874001,2575,1
230,兰州拉面(理工大店),湖北省武汉市青山区武汉理工大学(余家头校区),中餐,30.61732185,114.3585318,2576,1
231,聚怡餐厅,武汉青山区和平大道947号武汉科技大学内,中餐,30.62634817,114.3626599,2578,1
232,正宗油焖大虾,湖北省武汉市青山区建设一路翠竹苑(B栋),中餐,30.62875125,114.3635387,2581,1
233,红舵码头主题餐厅(奥山世纪城店),武汉市青山区和平大道809号奥山世纪广场B1楼(近和平大道入口的电梯下来即是),休闲餐饮,30.61873801,114.355116,2587,2
234,野味食家,湖北省武汉市青山区绿景苑・港东名居二期东北(瑞丰路),中餐,30.60774171,114.3679821,2593,1
235,黑龙江饺子,湖北省武汉市洪山区金鹤园北区(北洋桥路),中餐,30.61083185,114.3728804,2600,1
236,大碗面,友谊大道厂前自建一村2号,中餐,30.6208866,114.4288303,2609,1
237,东北饺子馆(冶金一街),冶金一街7附7,中餐,30.63565397,114.3929788,2619,1
238,北方老面放心馍(建港南街店),建港南街8附11号,中餐,30.61923864,114.3666791,2626,1
239,好爽小吃店,湖北省武汉市青山区红钢二街29附14号,中餐,30.64770202,114.3994536,2627,1
240,为民面馆,工业二路19附2(近公交719路终点站),中餐,30.62900465,114.3907875,2645,1
241,牛肉拉面,湖北省武汉市青山区工人村新村路青宜居(东区),中餐,30.64714207,114.409987,2646,1
242,兰州牛肉拉面馆,湖北省武汉市洪山区和平街道铁机路中铁花园,中餐,30.60157688,114.3540643,2647,1
243,杨姐脆皮鸡饭(理工大),才汇巷648-7号门面,中餐,30.61055357,114.3561886,2651,1
244,麦当劳(红钢城餐厅),武汉市青山区和平大道1536附1,休闲餐饮,30.64060495,114.3949497,2652,2
245,新时代自助快餐(工业一路),工业一路30街一门一号,中餐,30.63295633,114.386198,2656,1
246,明新小吃店,和平大道1089附4,中餐,30.64585159,114.4044822,2659,1
247,汪氏牛肉面馆(厂前店),友谊大道友谊副食店斜对面100米,中餐,30.62093019,114.428919,2660,1
248,特色腰花粉面,湖北省武汉市青山区红钢城建设九路六街坊社区,中餐,30.64469053,114.4008136,2665,1
249,甜甜早餐店,湖北省武汉市青山区二十一号公路型材工业园西南350米,中餐,30.64688784,114.4213947,2669,1
250,味美饺子馆系列凉菜绘面,武汉市青山区冶金一街9附20,中餐,30.6356815,114.3943068,2671,1
251,好滋味自助快餐(余家头店),联盟路68号铁机娱乐中心2栋1层14-15(武汉理工大学余家头校区后街),中餐,30.61047136,114.3556679,2674,1
252,顺和小吃店(新沟桥店),市政侧路2附29,中餐,30.63748684,114.3940426,2680,1
253,红油热干面,友谊大道附近,中餐,30.62092561,114.4290092,2683,1
254,荣炙速味居黄焖鸡米饭(红钢城店),建设八路9附8,中餐,30.64453112,114.3964755,2685,1
255,老汉口红油热干面,三弓路与吉林街交叉口南50米,中餐,30.62638125,114.3656103,2688,1
256,尚品,钢城商务大厦附近att时尚广场1层,休闲餐饮,30.63407192,114.395166,2694,2
257,兰州拉面,武汉市青山区青和居3栋底商15号,中餐,30.64784591,114.4162426,2697,1
258,周记贵州花溪牛肉粉面馆,青山区黄州街37号,中餐,30.62577484,114.3939067,2702,1
259,民食早点店,红钢三街25附14号,中餐,30.64751796,114.4034307,2705,1
260,老胡记羊肉汤粉,黄州街108街坊北门(近502终点站),中餐,30.62551432,114.3941071,2713,1
261,好面熟食铺,金域花园旁,中餐,30.62830006,114.3807206,2715,1
262,奥德隆,建设九路8附14,休闲餐饮,30.64491725,114.4004567,2718,2
263,滋味牛,湖北省武汉市青山区青山绿水花园(七星天兴花园北),中餐,30.65055638,114.4102791,2727,1
264,兰州正宗牛肉拉面,湖北省武汉市青山区园林路80号附近,中餐,30.61009573,114.3625785,2728,1
265,北方千层饼,湖北省武汉市青山区红钢城建设八路武钢科技人才园,中餐,30.64702651,114.394915,2729,1
266,川面馆,冶金一街9附27号,中餐,30.63564446,114.3946328,2730,1
267,如意馄饨(建一南路店),建一南路鑫园商业街3号(近民馨妇科医院楼下),中餐,30.61457075,114.3750754,2735,1
268,吴名氏红油牛杂,武汉市青山区建设三路80号,中餐,30.62384386,114.3784174,2741,1
269,兰州正宗牛肉拉面(鄂州街),湖北省武汉市青山区九医院路18号附近,中餐,30.62681543,114.3737229,2743,1
270,郭记烧烤饺子馆,和平大道1554附6号,中餐,30.64359569,114.4011867,2744,1
271,老徐特色牛肉粉面馆,武汉市青山区青山镇街道4041街坊江南春城16栋1-2层1室,中餐,30.63231345,114.3751839,2752,1
272,友明煨汤馆,鄂州街6号,中餐,30.63115893,114.3897399,2757,1
273,NEW YORKS POTATO(众圆广场店),和平大道959号武商众圆广场3楼电梯旁,休闲餐饮,30.62847133,114.372312,2760,2
274,襄阳牛肉面(众圆广场店),和平大道959号武商众圆广场负一楼维家乐美食城(和平大道和建设二路交叉处),中餐,30.62823266,114.3770557,2775,1
275,老五烧烤(众圆广场店),武汉市青山区和平大道959号武商众圆广场F5,中餐,30.62965375,114.3713332,2780,1
276,正宗湖南牛杂粉,建设三路10之附4附5,中餐,30.63312401,114.3707346,2787,1
277,哈尔滨饺子馆,湖北省武汉市青山区黄州街21附5号,中餐,30.61906697,114.3862278,2790,1
278,重庆小面,新沟桥12街38门1号,中餐,30.63572273,114.3922044,2798,1
279,廖记棒棒鸡(钢都花园店),钢都花园A3区50栋中百仓储钢都花园店门牌号园林路67附3,中餐,30.61578701,114.3626819,2812,1
280,愤怒的鸡米饭(工业路店),武汉市青山区工业路60号116东1门和东2门,中餐,30.62452403,114.3814154,2825,1
281,紫燕百味鸡(建一店),湖北省武汉市洪山区祥丰路,中餐,30.61457132,114.3761029,2839,1
282,陈记炸酱面馆(大洲店),湖北省武汉市青山区友谊大道823-1号南50米,中餐,30.61966712,114.3767338,2840,1
283,牛肉面馆,湖北省武汉市青山区红钢城建设九路三街社区西三门,中餐,30.64564075,114.400511,2846,1
284,四川麻辣烫,工业一路,中餐,30.62205957,114.3866788,2857,1
285,安庆特色馄饨,湖北省武汉市黄州街37附3号,中餐,30.62579544,114.3938679,2865,1
286,沙县小吃,湖北省武汉市青山区和平大道和平党校宿舍,中餐,30.62792516,114.3765673,2884,1
287,潮洲馆滋补店,红钢二街13附23号,中餐,30.64301926,114.3894263,2892,1
288,刘记煲仔饭(理工大店),理工大学(余家头校区)五号门2号门面,中餐,30.60911473,114.3556819,2902,1
289,小胡鸭(青山假日广场店),冶金大道9号青山健吾假日广场A栋A1005,中餐,30.63344816,114.387634,2909,1
290,亮芳胡炸炸(青山店),建设三路118街坊东门武钢电视台对面,中餐,30.62334493,114.3789161,2921,1
291,金谷一韩式料理自助烧烤(红钢四街店),钢城商务大厦附近att时尚广场2层,休闲餐饮,30.6397636,114.3946915,2934,2
292,鑫清山镇(冶金一街),工业三路3附22号,中餐,30.63572029,114.3951468,2937,1
293,秦风酒店,武汉市和平大道1246附11号,中餐,30.62548607,114.3670799,2938,1
294,二胖烧烤(工业一路店),黄州街23附1号(工业一路和黄州街交叉口东),中餐,30.62582961,114.3864755,2941,1
295,鑫皇朝酒店,和平大道与建设一路交叉口南100米,中餐,30.62427123,114.36676,2944,1
296,丽小馆(武商众圆广场店),武汉市青山区和平大道959号武商众圆广场F5,中餐,30.6291055,114.3717938,2946,1
297,豪客来(红钢城店),青扬十街商业街8栋2楼2-30-2号,休闲餐饮,30.6409349,114.3942348,2949,2
298,忆香苑烧烤(青山分店),工业三路16号(24街),中餐,30.63672089,114.3948467,2950,1
299,小是小老味菜馆,工业二路19号附1(公交719起点站旁),中餐,30.62879348,114.3907241,2956,1
300,小灶口味馆(冶金街店),红钢城20街沿港路冶金一街路口(武钢总医院后门),中餐,30.63566061,114.3978973,2957,1
301,清山七号(建一店),武汉洪山区建一南路祥丰路126号(鹤园小区门口),中餐,30.61441966,114.3752123,2959,1
302,小乐川(青山店),建设七路20号(青山天河影院旁),中餐,30.64241629,114.3923461,2964,1
303,武钢五中炸肉串,湖北省武汉市青山区红钢二街11-9号,中餐,30.64233931,114.3879227,2966,1
304,大拇指餐厅(红钢城店),红钢城红钢四街5号(19街),中餐,30.63979926,114.3960766,2971,1
305,元祖食品(青山店),湖北省武汉市青山区红钢城工业三路8号,中餐,30.63876585,114.3947981,2972,1
306,星际私厨,和平大道建设九路1544号青山公园侧门旁,休闲餐饮,30.64397959,114.4020461,2976,2
307,三达酒吧,武汉市青山区武昌工业一路38街38号,休闲餐饮,30.63112909,114.3813069,2980,2
308,狮龙啤酒烧烤屋(建二路店),湖北省武汉市青山区建设二路11号(近辽宁街)建设二路117街一冶商业大楼(近辽宁街),中餐,30.62236543,114.374744,2986,1
309,麦客蛋糕(现代花园店),友谊大道973号(工业四路路口),休闲餐饮,30.62183397,114.4002391,2990,2
310,老街坊(青山店),恩施街29附7号,中餐,30.62371592,114.3967873,2997,1
311,江西瓦罐煨汤(工业三路店),湖北省武汉市青山区友谊大道南100米,中餐,30.62016378,114.3951233,3007,1
312,金韩宫 (众圆广场店),武汉市青山区和平大道959号武商众圆广场F5,休闲餐饮,30.62834327,114.3713823,3016,2
313,品之韵,市政侧路5附21,休闲餐饮,30.63775307,114.393955,3018,2
314,香辣居美食,工业四路5附10号,中餐,30.63025434,114.3999273,3024,1
315,一鸣餐厅(红钢四街店),红钢四街3附3号,中餐,30.63942929,114.3950869,3025,1
316,zoo coffee(众圆广场店),武汉市青山区和平大道959号武商众圆广场F1,休闲餐饮,30.62907103,114.370462,3027,2
317,胖胖鱼馆,金鹤园29栋16号门面,中餐,30.61156126,114.3747419,3030,1
318,祥香美食城,湖北省武汉市洪山区智和路东方雅园1期四号门旁,中餐,30.61513897,114.3943578,3032,1
319,85度C(青山众圆店),武汉市青山区和平大道959号武商众圆广场F1,休闲餐饮,30.62905142,114.3709935,3041,2
320,老许烧烤,建设三路78,中餐,30.62376384,114.3784723,3042,1
321,小胡鸭(玲珑汇店),友谊大道大洲村宏昌玲珑汇1号楼东侧,中餐,30.61914909,114.3757193,3045,1
322,橙士风(任家路店),建设一路27附3,中餐,30.62456959,114.3674898,3048,1
323,鸭湾农家菜(青山分店),工业三路5附47号,中餐,30.63355596,114.3951828,3050,1
324,冬咖啡,和平大道6街35门2号(和平大道建设八路天桥下100米),休闲餐饮,30.64298617,114.3986666,3054,2
325,长廊,工业路19号,休闲餐饮,30.6241006,114.3819304,3076,2
326,贵哥卤肉卷(众圆广场店),武汉市青山区和平大道959号武商众圆广场B1,中餐,30.62794278,114.3711075,3078,1
327,华利尔蛋糕,建设二路建二北路临141号,休闲餐饮,30.6288951,114.3688636,3094,2
328,柯小姐的店(众圆广场店),武汉市青山区和平大道959号武商众园广场B1,休闲餐饮,30.62796872,114.3711515,3102,2
329,两桌半,湖北省武汉市青山区鄂州街冶金27街社区冶金27街坊北门,中餐,30.63093458,114.3941972,3108,1
330,重庆尚品牛骨头面庄(冶金店),冶金大道17附9号,中餐,30.63341239,114.3945444,3117,1
331,攀峰咖啡,和平大道1546附2号,休闲餐饮,30.64159793,114.398666,3121,2
332,吾饮良品(钢城四中店),钢城四中西北门5号,休闲餐饮,30.6373619,114.3882523,3124,2
333,香儿茶饮(青山店),工业二路35附6号,休闲餐饮,30.62325861,114.3908087,3153,2
334,圣安德鲁饼屋(金鹤园店),洪山区祥丰路132号,休闲餐饮,30.61468752,114.3751268,3158,2
335,明彪新农秘制牛肉面馆(建设六路店),建设六路2附6号,中餐,30.64137025,114.3876881,3162,1
336,逍遥居,武汉青山区黄州街35附23号,休闲餐饮,30.62578507,114.3930867,3165,2
337,果优味(武商众圆广场店),武汉市青山区和平大道959号武商众圆广场F5,休闲餐饮,30.62923647,114.3708706,3167,2
338,紫燕百味鸡(三弓路店),三弓路市场附1号,中餐,30.61915522,114.365386,3180,1
339,良品铺子(玲珑汇店),友谊大道宏昌玲珑汇一号楼东侧1单元1层6号,中餐,30.61923502,114.3758918,3182,1
340,晶银大酒店茶社,和平大道955号晶银大酒店,休闲餐饮,30.62740179,114.3696489,3186,2
341,王后鲜奶吧(建二店),青山区建设二路11号,休闲餐饮,30.62230914,114.3746651,3188,2
342,美地咖啡,园林路90附5号,休闲餐饮,30.60870589,114.3666835,3197,2
343,康桥咖啡,友谊大道678附41号,休闲餐饮,30.60884748,114.3572041,3204,2
344,新回归,武汉市青山区鄂州街15附11号,休闲餐饮,30.63129227,114.3990781,3208,2
345,丫丫开心咖啡,吉林街12附11号,休闲餐饮,30.62488046,114.3715583,3222,2
346,尚尚咖啡,和平街道仁和路青城华府S2-21,休闲餐饮,30.61918306,114.3830814,3227,2
347,金陵香酥饼镇江小吃,湖北省武汉市青山区红旗酒店(友谊大道店),中餐,30.62085246,114.4292031,3235,1
348,李李麻辣烫,长青路236附7号,中餐,30.65818798,114.4261191,3236,1
349,迪阁咖啡,友谊大道908号,休闲餐饮,30.61775155,114.3731566,3249,2
350,正点小吃,湖北省武汉市青山区铁路山5栋,中餐,30.62343868,114.4233395,3268,1
351,eva_Ccino CAFE,青山区众圆广场一楼C馆一楼5号门,休闲餐饮,30.62721229,114.3701085,3284,2
352,三毛老街坊面馆,白马馨居11-06号,中餐,30.6031782,114.4129533,3287,1
353,正宗东北菜饺子馆,湖北省武汉市青山区武钢集团公司建设三路虹蔚社区旁八大家花园26栋1号门面,中餐,30.62694545,114.3766213,3297,1
354,兰州正宗牛肉拉面,团结大道,中餐,30.61126258,114.4323004,3305,1
355,如意馄饨(青宜居店),武汉市青山区青宜居2栋,中餐,30.64719988,114.4155804,3310,1
356,郭氏胖胖羊肉汤馆(建设八路店),建设八路19附9号,中餐,30.64274761,114.3976066,3314,1
357,好吃佬牛肉面馆,建设八路13号,中餐,30.64400723,114.3968163,3335,1
358,哈尔滨饺子馆,红钢城3街坊38门10号,中餐,30.64455046,114.4019585,3338,1
359,天天兴饺子馆,湖北省武汉市青山区建设四路吉庆苑2332门东北门,中餐,30.63534861,114.3744809,3341,1
360,哈尔滨饺子馆(鄂州街店),黄州街21附5号,中餐,30.62582857,114.3857198,3346,1
361,哈尔滨饺子馆(冶金一街店),冶金一街12附11号,中餐,30.63536179,114.3938768,3350,1
362,放心早点,湖北省武汉市青山区红钢城建设十路二街社区南门,中餐,30.64749945,114.4027863,3353,1
363,特色腰花粉面,恩施街105号,中餐,30.63776558,114.3942738,3354,1
364,常青麦香园(建十路店),和平大道1089附16,中餐,30.64548578,114.4039089,3357,1
365,派乐汉堡(四十九中店),红钢二街26号,休闲餐饮,30.64844452,114.4010262,3358,2
366,蒸福包子,湖北省武汉市青山区建设二路开元公馆对面,中餐,30.62922531,114.3686344,3361,1
367,三镇民生甜食馆(建二店),辽宁街9附6号,中餐,30.62185775,114.3742245,3362,1
368,BT翅(青山店),武汉市青山区和平大道1542号青山百货商场F1,中餐,30.64156806,114.3978958,3363,1
369,新农牛肉面(青山分店),红钢三街14附12,中餐,30.64561656,114.3905879,3365,1
370,正宗哈尔滨饺子馆(红钢二街),红钢二街13附21号,中餐,30.64287943,114.3891564,3368,1
371,江西佬l煨汤馆(市政侧路),市政侧路13号,中餐,30.63772342,114.3955915,3375,1
372,金童子(青山众圆店),武汉市青山区和平大道959号武商众圆广场B1,中餐,30.62911732,114.3711034,3377,1
373,老精武卤味店,工业三路3附12号,中餐,30.63675084,114.3951558,3378,1
374,小四川面馆,湖北省武汉市青山区黄州街31附8,中餐,30.62579251,114.3896408,3380,1
375,湖南特色牛肉粉,红钢二街26附9号附近,中餐,30.64863724,114.4014902,3387,1
376,武钢后勤集团公司快餐食品饮料公司退居休人员管理办公室,湖北省武汉市青山区建设八路1-14号附近,公司,30.64727547,114.3942107,3395,7
377,顺意餐厅(红钢四街),红钢四街3附6,中餐,30.63940957,114.3952855,3397,1
378,街边风景餐饮,红钢二街7附5号,中餐,30.64183202,114.386997,3398,1
379,四合院茶社,湖北省武汉市青山区恩施街23号,休闲餐饮,30.62376432,114.3925671,3407,2
380,三镇民生甜食馆(三弓路店),三弓路市场0016,中餐,30.61878081,114.3654437,3413,1
381,凯蒂茶坊,随州街20附26附27,休闲餐饮,30.62750525,114.3936175,3416,2
382,梦天湖生态园大酒店(民福分店),友谊大道1132号,中餐,30.62122775,114.3878622,3427,1
383,口味坊土菜馆,湖北省武汉市洪山区友谊大道才汇巷大城小院1栋,中餐,30.60645604,114.3586215,3430,1
384,锦城食府,湖北省武汉市青山区建设一路南路吉林街14号(洪福美邻旁),中餐,30.62329545,114.3689314,3431,1
385,小四川酒楼,武汉市青山区友谊大道1387号,中餐,30.62305367,114.4082789,3435,1
386,水云涧,湖北省武汉市青山区青扬十街1-14-1,休闲餐饮,30.64233973,114.3932884,3441,2
387,聚全食府,祥丰路134-136号西门,中餐,30.61276756,114.3785598,3448,1
388,老街老味,湖北省武汉市青山区随州街101号青城华庭北门(绿苑小区旁),中餐,30.62732245,114.4024589,3454,1
389,百味源烤虾,湖北省武汉市青山区旅大街1附32,中餐,30.6279856,114.3636815,3460,1
390,一品农家菜馆,湖北省武汉市青山区工人村青和居二期(新村路北),中餐,30.64787181,114.4153685,3472,1
391,灶王府家常菜馆,湖北省武汉市江岸区东方恒星园第2栋1-2层,中餐,30.63649804,114.2818663,3483,1
392,虾憨子,武汉市武昌区秦园东路水岸星城A区(本味酒店对面),中餐,30.57948981,114.3412387,3485,1
393,武汉小黄菜馆,湖北省武汉市江汉区三眼桥北路39附9,中餐,30.61536415,114.2737548,3489,1
394,姜辣坊,湖北省武汉市武昌区巡司河街3号,中餐,30.53026079,114.2905651,3492,1
395,小湘村菜馆,湖北省武汉市武昌区首义新村117号,中餐,30.54010328,114.3015148,3498,1
396,国际孵化中心-A区,江欣苑路333号附近,公司,30.53336543,114.2378027,3502,7
397,妈妈菜馆,武汉市~口区武胜西街63号,中餐,30.57541897,114.2618525,3506,1
398,洲头人家生活菜馆,湖北省武汉市汉阳区鹦鹉大道163附26,中餐,30.54480686,114.2624801,3507,1
399,虾王农家菜馆,湖北省武汉市江夏区杨桥湖大道湖北经济学院斜对面中百仓储旁A8台球2楼,中餐,30.41933776,114.4218916,3509,1
400,武汉酒轩私房菜馆,武汉市黄陂区梅教街60号,中餐,30.70318499,114.4092895,3514,1
401,玉荣庄土菜馆,武汉市洪山区雄楚大道358号(雄楚检察院旁),中餐,30.51237521,114.3496877,3515,1
402,口岸家常菜馆,湖北省武汉市洪山区珞狮南路475号,中餐,30.50978858,114.3431133,3516,1
403,瑞华家常菜馆,武汉市~口区宝裕路38号,中餐,30.57781468,114.2569477,3517,1
404,广广土菜馆,武汉市黄陂区明清街142号,中餐,31.0999459,114.345737,3523,1
405,252农家菜馆,湖北省武汉市洪山区花城家园竹园社区(森林大道北),中餐,30.52425052,114.515501,3525,1
406,老菜馆,武汉市黄陂区新建街与长塔路交汇处,中餐,31.10362821,114.3488321,3528,1
407,牛三锅,湖北省武汉市洪山区金地阳光城东门旁,中餐,30.49366137,114.3935685,3529,1
408,食家庄土菜馆,湖北省武汉市武昌区武泰闸堤街(司校路东),中餐,30.52145313,114.2993793,3533,1
409,老湾菜馆,湖北省武汉市黄陂区海航工业园一号路武汉海航临空产业园,中餐,30.81691904,114.2378792,3538,1
410,小亮蒸虾宙宙私房菜馆,湖北省武汉市洪山区卓刀泉路247附29,中餐,30.51068011,114.3701906,3539,1
411,重庆鱼庄,湖北省武汉市江汉区民意四路同益社区舞台社区东区,中餐,30.57872518,114.2779074,3540,1
412,乡厨菜馆(金才道),湖北省武汉市黄陂区滠口武汉7日宾馆(黄陂店)西50米,中餐,30.71879454,114.3483565,3546,1
413,陶家小菜馆,湖北省武汉市江夏区康魅路12号,中餐,30.42982773,114.4410232,3547,1
414,鑫吉祥菜馆,湖北省武汉市江汉区常青三路旁,中餐,30.62998274,114.2566191,3550,1
415,77菜馆,湖北省武汉市江岸区洞庭街53号,中餐,30.58798166,114.2943133,3561,1
416,川味王平价菜馆,武汉市~口区营房后街91号,中餐,30.58026529,114.244659,3566,1
417,宋老厨,武汉市蔡甸区海天汽配城西1栋128室,中餐,30.47147111,114.1261788,3568,1
418,东北特色菜馆,湖北省武汉市洪山区关山大道389,中餐,30.49361824,114.406077,3573,1
419,春光家常菜馆,湖北省武汉市武昌区武汉大学中南医院,中餐,30.55696084,114.3456003,3581,1
420,娜娜家常菜馆,武汉市~口区汉正街335-337号,中餐,30.56848302,114.2561959,3582,1
421,江湖菜馆,武汉市黄陂区新建街98号,中餐,31.09845991,114.3461774,3585,1
422,东北菜馆,湖北省武汉市洪山区高新大道左岭新城一期16号,中餐,30.49360591,114.6188355,3590,1
423,明园菜馆,湖北省武汉市~口区紫润明园48栋,中餐,30.62372895,114.2076549,3608,1
424,农家菜馆,湖北省武汉市武昌区友谊大道12号,中餐,30.57875826,114.3227641,3619,1
425,农家菜馆,武汉市~口区横堤上街17号,中餐,30.57303236,114.2705237,3621,1
426,康达菜馆,武汉市武昌区天佑医院南门,中餐,30.52482353,114.3210576,3624,1
427,三毛家常菜馆,湖北省武汉市汉南区汉南大道1255附4旁,中餐,30.32942394,114.0820582,3635,1
428,农家菜馆,湖北省武汉市黄陂区胜景大道21,中餐,31.10119506,114.3826888,3637,1
429,平凡土菜馆,湖北省武汉市黄陂区前川街道钓台道冰晶兰馨苑,中餐,30.8914436,114.364682,3639,1
430,熊家小院,湖北省武汉市黄陂区盘龙城经济开发区宋岗二路俊珲工业城,中餐,30.73333693,114.2408678,3646,1
431,农家菜馆,武汉市江汉区发展大道179号天梨豪园,中餐,30.61510943,114.2445264,3648,1
432,云宾菜馆,湖北省武汉市江夏区山坡农贸市场(008县道南),中餐,30.08593525,114.3457935,3684,1
433,夏记饭馆,武汉市新洲区刘集街227号,中餐,30.83065114,114.7692821,3687,1
434,紫轩菜馆,湖北省武汉市黄陂区武湖街道江咀立山路望湖国际,中餐,30.69913117,114.4060369,3691,1
435,家常菜馆,武汉市江汉区汉西北路189号1层5室,中餐,30.59960743,114.2225766,3706,1
436,湖南菜馆,湖北省武汉市江夏区高新六路辅路,中餐,30.44154777,114.4564007,3709,1
437,金菊餐馆,湖北省武汉市武昌区武泰闸武金堤路交通大队四中队附近,中餐,30.52302908,114.2992043,3717,1
438,金圆菜馆,湖北省武汉市江夏区安山街道兴安路静静幼儿园北150米,中餐,30.15621737,114.2883023,3733,1
439,老吕菜馆,湖北省武汉市新洲区清安社区(南区),中餐,30.84339359,114.7991492,3734,1
440,美食美天,武汉市东西湖区现代机电城38栋31-32号,中餐,30.62360832,114.1007486,3748,1
441,王子菜馆,湖北省武汉市东西湖区吴家山新城六路2号,中餐,30.62743233,114.1237226,3751,1
442,民生家常菜馆,湖北省武汉市新洲区邾城街道红旗街红旗小区,中餐,30.84389686,114.7944202,3759,1
443,程记小饭馆,湖北省武汉市新洲区汪集兴旺购物中心(汪集镇中心小学北),中餐,30.77726414,114.7043571,3760,1
444,农家土菜馆,武汉市黄陂区板桥大道30号,中餐,30.87584511,114.372039,3764,1
445,我家小菜馆,武汉市黄陂区尚武道附7,中餐,30.71581917,114.3493396,3768,1
446,虾搞土菜馆,湖北省武汉市江汉区红旗渠路99号5栋1-2层10号,中餐,30.62623724,114.2470167,3774,1
447,好食烩菜馆,武汉市江岸区交易街101号,中餐,30.59188156,114.2879925,3778,1
448,平价川菜馆,湖北省武汉市汉阳区金花路四台工业园黄金花园集贸市场,中餐,30.5907508,114.1532566,3781,1
449,胡胖子饭馆,湖北省武汉市江夏区六期菜场(武汉绕城高速公路北),中餐,30.45768176,114.5499458,3782,1
450,川味缘菜馆,湖北省武汉市武昌区东湖新村14号,中餐,30.53318037,114.3659328,3786,1
451,靓汤蒸菜馆,武汉市洪山区丽岛柳园南区23号,中餐,30.51003864,114.3322405,3790,1
452,谈家老菜馆,湖北省武汉市洪山区烽火装饰材料大市场服务区F15栋-03号,中餐,30.50418392,114.2924644,3793,1
453,嘟咪咪菜馆,湖北省武汉市江夏区郑店湖北锦华阀门制造公司(郑店立交桥西),中餐,30.33301843,114.2505338,3799,1
454,尝一口菜馆,武汉市汉阳区芳草路13号,中餐,30.55591169,114.2112479,3801,1
455,胜情土菜馆,武汉市黄陂区石门街170号,中餐,31.14947163,114.2936808,3806,1
456,农家小菜馆,湖北省武汉市黄陂区火塔线(木兰文化生态旅游区内),中餐,31.02546877,114.4454531,3807,1
457,外婆土菜馆,湖北省武汉市黄陂区木兰文化生态旅游区木兰草原,中餐,30.957058,114.4546233,3808,1
458,水斌家常菜馆,湖北省武汉市新洲区勤政里48,中餐,30.84224423,114.7946667,3809,1
459,红平家常菜馆,武汉市新洲区古城大道310号,中餐,30.8426457,114.7937195,3810,1
460,样样红菜馆,武汉市江岸区解放南路12附27,中餐,30.59412112,114.2858584,3822,1
461,楚湘私房菜,武汉市江岸区发展大道467号,中餐,30.62575636,114.2784295,3823,1
462,农家土菜馆,湖北省武汉市黄陂区中兴路,中餐,30.807381,114.2111697,3824,1
463,川胖子菜馆,武汉市黄陂区佳海工业园内,中餐,30.73315791,114.2405715,3826,1
464,养生汤菜馆,湖北省武汉市江汉区发展一路迎宾花园(万科城附近),中餐,30.62757261,114.2310185,3828,1
465,川湘阁菜馆,武汉市江夏区武昌大道1359号,中餐,30.3684959,114.3078982,3841,1
466,龙家嘴菜馆,湖北省武汉市蔡甸区汉阳大街正虹集团正虹饲料公司附近,中餐,30.55398026,114.0987794,3844,1
467,姐妹土菜馆,湖北省武汉市蔡甸区消泗乡渔樵百曲武汉农村商业银行旁,中餐,30.31567053,113.7730313,3847,1
468,味湘缘菜馆,湖北省武汉市江岸区后湖街办事处竹叶山中环商贸城牧畜岭120号,中餐,30.66038747,114.297751,3857,1
469,渔家土菜馆,武汉市洪山区武汉动车基地1号,中餐,30.57497158,114.4387593,3865,1
470,我家小菜馆,湖北省武汉市蔡甸区铁铺农贸综合市场(汉阳大街北),中餐,30.552626,114.1068997,3887,1
471,福鲜土菜馆,武汉市蔡甸区,中餐,30.27104618,113.8491227,3890,1
472,麻哥土菜馆,武汉市东西湖区沿海赛洛城1期50栋11,中餐,30.63878112,114.1529291,3901,1
473,小赵土菜馆,武汉市东西湖区砖厂路117号,中餐,30.65124827,114.0241069,3904,1
474,好食汇菜馆,湖北省武汉市东西湖区金谭路汉宏科技园6栋,中餐,30.67502335,114.2628695,3905,1
475,博大土菜馆,湖北省武汉市东西湖区海峡创业城东南(革新大道南),中餐,30.61487382,114.1232426,3907,1
476,老四川菜馆,湖北省武汉市东西湖区将军路165,中餐,30.65399012,114.254595,3910,1
477,湘聚源土菜馆,湖北省武汉市黄陂区木兰文化生态旅游区武汉农村商业银行,中餐,31.07417908,114.2019055,3917,1
478,一鸣家常菜馆,湖北省武汉市黄陂区向阳大街213,中餐,30.86961822,114.3607436,3922,1
479,简单生活菜馆,湖北省武汉市新洲区高新街阳光明珠旁(佳阳・摩尔城西北),中餐,30.67227124,114.5672622,3924,1
480,童师傅家常菜馆,湖北省武汉市新洲区S111(汉施大道),中餐,30.71075766,114.5204833,3925,1
481,口味私房菜馆,湖北省武汉市洪山区焦沙路伟达建设机械公司旁,中餐,30.66493206,114.4797828,3926,1
482,川湘平价菜馆,湖北省武汉市黄陂区盘龙城经济开发区盘龙一路美府明苑,中餐,30.6925667,114.2959287,3929,1
483,大掌柜生活菜馆,武汉市黄陂区巨龙大道1号企业社区内,中餐,30.70122903,114.295059,3930,1
484,川湘农家菜馆,武汉市武昌区和平大道830号,中餐,30.58788894,114.3237487,3937,1
485,友元家常菜馆,湖北省武汉市江汉区双洞左巷58-附1,中餐,30.58296223,114.2697549,3939,1
486,宏鹏程土菜馆,湖北省武汉市黄陂区武汉盘龙城经济开发区佳海都市工业园H区,中餐,30.74092873,114.2326709,3941,1
487,山里厨子菜馆,湖北省武汉市武昌区东亭路10号,中餐,30.57346226,114.3589068,3950,1
488,湘味家常菜馆,湖北省武汉市蔡甸区朱山湖大道g4号附近,中餐,30.44746299,114.0561713,3979,1
489,香福园土菜馆,湖北省武汉市江夏区兴安路202,中餐,30.1519283,114.2884496,3980,1
490,清凉寨土菜馆,湖北省武汉市黄陂区木兰文化生态旅游区天寨沟漂流,中餐,31.29085838,114.216821,3982,1
491,向家嘴土菜馆,湖北省武汉市黄陂区木兰文化生态旅游区素山寺森林公园东,中餐,31.2136295,114.2711874,3983,1
492,香巴佬土菜馆,湖北省武汉市黄陂区木兰大道79,中餐,31.10010593,114.4594083,3984,1
493,辛冲私房菜馆,湖北省武汉市新洲区清安社区(南区),中餐,30.84368348,114.7991882,3986,1
494,陈记农家菜馆,湖北省武汉市新洲区富杨棉制品有限公司东北(林岗街北),中餐,30.90169305,114.6379139,3987,1
495,积兴装饰,东风大道与东风大道高架桥交叉口西北100米,公司,30.47933942,114.1394952,3988,7
496,红豆农家菜馆,湖北省武汉市新洲区武滨路63,中餐,30.83798238,114.5990439,3990,1
497,东北饺子菜馆,武汉市新洲区兴龙街11,中餐,30.59420554,114.6632065,3991,1
498,斌斌农家菜馆,湖北省武汉市黄陂区黄武公路三里镇集贸市场附近,中餐,30.78313634,114.415727,3995,1
499,马家私房菜馆,武汉市新洲区阳逻街汉施路特1号武生院商业街B207,中餐,30.7148726,114.526985,3996,1
500,胖子农家菜馆,湖北省武汉市黄陂区武湖街道黄咀汉施公路沙口新家园北,中餐,30.70732266,114.4744954,3997,1
501,豪爽农家菜馆,武汉市江岸区谌家矶街办事处谌家矶大道34号,中餐,30.67756713,114.3639616,4001,1
502,小二家常菜馆,武汉市武昌区和平大道四美塘路,中餐,30.60046148,114.3351781,4005,1
503,洋洋东北菜馆,湖北省武汉市江岸区中山大道1421号,中餐,30.60719036,114.3021915,4009,1
504,东风家常菜馆,武汉市~口区长丰大道34号,中餐,30.61402297,114.1708281,4020,1
505,煌尚私房菜馆,武汉市江夏区藏龙岛杨桥湖大道15号特嘉美食广场2楼(湖北经济学院斜对面),中餐,30.42181666,114.424611,4025,1
506,青山农家菜馆,湖北省武汉市江夏区光谷一路与富士康西路交叉口南200米,中餐,30.43635193,114.4378954,4026,1
507,小双家常菜馆,武汉市~口区宝丰街72号,中餐,30.58005865,114.2614752,4034,1
508,农夫之家菜馆,湖北省武汉市洪山区新发路湖北银河信息技术学院附近,中餐,30.44725037,114.3073951,4039,1
509,东湖里土菜馆,武汉市江夏区立交桥路59号,中餐,30.36349282,114.3195604,4043,1
510,五福记土菜馆,湖北省武汉市江夏区江夏体育馆斜对面,中餐,30.35327571,114.3093004,4045,1
511,徐记家常菜馆,湖北省武汉市汉阳区十里华府北50米(赫山路西),中餐,30.56429605,114.2144347,4050,1
512,木兰风味菜馆,湖北省武汉市蔡甸区曹庄路80号附近,中餐,30.46846528,114.1707767,4053,1
513,高霞农家菜馆,湖北省武汉市汉南区纱帽汉南大道赞宏购物广场,中餐,30.31156032,114.0754603,4056,1
514,好来私房菜馆,武汉市新洲区邾城街179号,中餐,30.84872083,114.807099,4061,1
515,一四农家菜馆,武汉市新洲区邾城街齐安大道112号,中餐,30.83445121,114.7982072,4062,1
516,游记家常菜馆,武汉市新洲区生生路12号,中餐,30.77677133,114.704416,4063,1
517,平价美食菜馆,湖北省武汉市黄陂区前川盛和嘉园(向阳大街东),中餐,30.87368711,114.3618175,4066,1
518,君红农家菜馆,湖北省武汉市新洲区新澳・城市印象(新港国际大酒店西北),中餐,30.70723594,114.5640553,4068,1
519,兄弟农家菜馆,湖北省武汉市新洲区军安道111,中餐,30.66207424,114.5714051,4069,1
520,诚信农家菜馆,湖北省武汉市洪山区八吉府街办事处鲁家前湾,中餐,30.66398004,114.4617924,4070,1
521,萍萍家乡菜馆,湖北省武汉市黄陂区汉口北大道汉北广场西北,中餐,30.72114655,114.3412273,4072,1
522,亮亮农家菜馆,湖北省武汉市黄陂区318国道西50米,中餐,30.7543815,114.3293041,4073,1
523,渝都农家菜馆,湖北省武汉市江岸区台北二路88号,中餐,30.60227104,114.277252,4080,1
524,重庆农家菜馆,武汉市~口区汉西二路227,中餐,30.59970328,114.2158687,4088,1
525,智智农家菜馆,湖北省武汉市洪山区东湖高新区关东街荷叶山社区内,中餐,30.5039688,114.4463302,4090,1
526,行运家常菜馆,湖北省武汉市江夏区桥北路65号附近,中餐,30.46135314,114.5444385,4092,1
527,老妈家常菜馆,湖北省武汉市洪山区机动车驾驶人白沙洲科目二科目三考场,中餐,30.43470287,114.2478634,4116,1
528,乡里人家菜馆,湖北省武汉市汉阳区桃花街桃花岛城市花园(西区),中餐,30.55064666,114.2185509,4124,1
529,醉仙生活菜馆,湖北省武汉市黄陂区美府明苑(盘龙一路东),中餐,30.69296992,114.2963233,4128,1
530,重庆幺妹菜馆,湖北省武汉市黄陂区佳海环形路,中餐,30.73805414,114.2367466,4131,1
531,天马农家菜馆,湖北省武汉市江夏区龙泉山风景区南,中餐,30.40868382,114.514082,4133,1
532,米当先寿司料理,武汉市青山区和平大道959号武商众圆广场F5,休闲餐饮,30.62948397,114.3712133,4143,2
533,我家芝心年糕料理,武汉市青山区和平大道959号武商众圆广场F5,休闲餐饮,30.62869642,114.3711554,4147,2
534,深圳科士达科技股份有限公司,机场巴士武汉徐东线,公司,30.58996194,114.3399419,4156,7
535,捞旺锅物料理（武汉广场店）,武汉市~口区京汉大道512号建科门口(近一号轻轨站利济北路站A出口),休闲餐饮,30.57947296,114.2643977,4160,2
536,金谷一韩式料理自助餐厅(佰港城店),武汉市洪山区南湖文治街30号维佳・佰港城F4,休闲餐饮,30.5058601,114.320651,4163,2
537,吉乃川日本料理,湖北省武汉市江岸区京汉大道义和巷金地1903一楼D9商铺,休闲餐饮,30.59378229,114.2863232,4165,2
538,味i日本料理(高雄路店),湖北省武汉市江岸区高雄路128号,休闲餐饮,30.60466022,114.2800847,4167,2
539,富士山日本料理,湖北省武汉市蔡甸区宁康路58号湘隆时代广场15栋附1号,休闲餐饮,30.50125381,114.1611271,4173,2
540,西月山居料理,湖北省武汉市江岸区一元路17号,休闲餐饮,30.59587748,114.2962521,4178,2
541,金谷韩式料理自助餐厅,武汉市江岸区后湖大道111号汉口城市广场F3,休闲餐饮,30.6545414,114.3005492,4184,2
542,仓桥家日本料理(光谷意大利风情街店),湖北省武汉市洪山区光谷三期意大利风情街3号楼3楼,休闲餐饮,30.50451441,114.4008859,4186,2
543,江南金草帽烤肉料理自助餐厅(中百百货店),武汉市江汉区江汉路129号中心百货F8,休闲餐饮,30.58425197,114.2841865,4192,2
544,仓桥家日本料理(世贸店),武汉市江汉区解放大道686号世贸广场F7,休闲餐饮,30.58244667,114.2638305,4195,2
545,仓桥家日本料理(群光店),武汉市洪山区珞喻路6号群光广场F8,休闲餐饮,30.52734015,114.3497439,4207,2
546,汉和京都日本料理,武汉市江汉区京汉大道826号,休闲餐饮,30.5858998,114.2794092,4209,2
547,捞旺盛哥锅物料理(虎泉店),武汉市洪山区卓刀泉路特1号虎泉购物广场F4,休闲餐饮,30.51628941,114.3638067,4212,2
548,丽小馆(永旺梦乐城店),武汉市汉阳区江城大道388号永旺梦乐城F2,中餐,30.50796427,114.2016275,4216,1
549,素点创意蔬食料理,武汉市汉阳区江城大道388号永旺梦乐城F1,休闲餐饮,30.5044396,114.1993602,4219,2
550,新桥日本料理,武汉市江汉区新华小路134号,休闲餐饮,30.59629675,114.2645132,4222,2
551,鸣人料理,武汉市~口区光谷世界广场3楼咕噜咕噜美食城,休闲餐饮,30.5888546,114.2119804,4236,2
552,仓桥家日本料理(王家湾店),武汉市汉阳区龙阳大道36号大洋百货F2,休闲餐饮,30.56317801,114.2031232,4248,2
553,立山日本料理(西北湖店),武汉市江汉区西北湖路23号,休闲餐饮,30.60003358,114.2600235,4262,2
554,捞旺锅物料理,湖北省武汉市珞瑜路887号(鲁巷广场对面),休闲餐饮,30.51028018,114.3901719,4263,2
555,仓桥家精致日式料理(鲁巷广场购物中心店),武汉市洪山区珞喻路726号鲁巷广场购物中心F6,休闲餐饮,30.50825085,114.3899951,4282,2
556,尚槿韩式料理啤酒屋百瑞景店,湖北省武汉市武昌区武珞路百瑞景商业步行街4栋113号,休闲餐饮,30.52388256,114.3292017,4283,2
557,长野屋日本料理,武汉市江岸区高雄路171附1,休闲餐饮,30.60532329,114.2787213,4285,2
558,小本家韩国料理,武汉市江夏区南湖大道政院小区37排(近，中南财经政法大学南湖校区),休闲餐饮,30.47787397,114.3784352,4286,2
559,金韩泰韩式料理,武汉市蔡甸区蔡甸街华林美食城52-54门面,休闲餐饮,30.53815085,114.0227094,4294,2
560,阿里郎韩国料理(销品茂店),武汉市武昌区徐东路18号销品茂5层,休闲餐饮,30.5912152,114.3380855,4318,2
561,饭屋日式料理(团结路店),武汉市洪山区武青四干道爱家国际华城一期一区4号1-2层17室,休闲餐饮,30.59268821,114.3576838,4331,2
562,园气屋 创意寿司料理,湖北省武汉市洪山区口278号乐天城购物广场1层,休闲餐饮,30.52826484,114.3491676,4338,2
563,金汉城韩国料理(徐东店),武汉市武昌区徐东路18号销品茂5层,休闲餐饮,30.59055905,114.3377232,4340,2
564,金草帽 韩国自助烧烤料理,武汉市东西湖区吴家山四明路与东吴大道交汇处北冰洋城市广场F3,休闲餐饮,30.62490335,114.1370115,4347,2
565,善苜村韩国料理(光谷天地店),武汉市洪山区关山大道519号光谷天地F1,休闲餐饮,30.48005388,114.4054018,4350,2
566,蜀山传川味料理,武汉市武昌区中北路31号凯德1818F6,中餐,30.55489129,114.334469,4361,1
567,花一番日本料理(最佳西方五月花大酒店),湖北省武汉市武昌区武珞路385号五月花大酒店3楼,休闲餐饮,30.53920801,114.3221545,4368,2
568,花见日本料理(武广店),江汉区万松园路1号创世纪广场工贸大厦5楼(武汉广场对面地铁2号线中山公园站D出口国广旁),休闲餐饮,30.58371645,114.2633494,4380,2
569,立山日本料理,武汉市京汉大道万科金色花园一期1栋1楼,休闲餐饮,30.58496662,114.275366,4381,2
570,千寻料理(江夏区纸坊总工会小区店),湖北省武汉市江夏区纸坊江夏大道185附,休闲餐饮,30.36687854,114.3290081,4389,2
571,韩日馆传统韩国料理,藏龙岛凤凰花园商业街4区1-3层182号,休闲餐饮,30.44136843,114.4199825,4393,2
572,米淘创意料理,洪山区光谷步行街西班牙风情街E125、E132号(幸福的紫菜包饭隔壁),中餐,30.505108,114.3994294,4395,1
573,欧巴品味料理,江夏区南湖时尚城一楼K119(派乐汉堡旁边),休闲餐饮,30.47921902,114.3806202,4396,2
574,五味捞锅物料理,中央花园购物中心A区2层17号(中商平价二楼),中餐,30.53848434,114.3041925,4400,1
575,半斤九两台湾料理,湖北省武汉市江汉区中山大道608号新民众乐园3层,中餐,30.57874931,114.281771,4405,1
576,江原道韩式家庭料理,武昌区29街B座3楼,休闲餐饮,30.51060996,114.3206979,4411,2
577,三年三班火锅店,经开万达广场S02商铺三年三班火锅店(万达广场2号门光大银行入口进农业银行对面武汉体育中心),中餐,30.51051431,114.1694698,4427,1
578,银水亭日本料理,洗马长街88号武汉晴川假日酒店二楼(晴川桥汉阳方向下桥即到),休闲餐饮,30.55968002,114.2797533,4431,2
579,三上日本料理,和平大道722号F6漫时区1层,休闲餐饮,30.57767072,114.317068,4445,2
580,阉苛侠,中山大道818号佳丽广场B1楼HAPPY站台C013号(民生路口),中餐,30.58122403,114.2857984,4446,1
581,厢味烤箱,菱角湖万达室外步行街E055号,中餐,30.61368431,114.2629867,4449,1
582,怡星料理,吴家湾899号商贸学院吴家湾899号1栋1号1楼,中餐,30.5086802,114.3796744,4450,1
583,伊也料理寿司,司门口后长街80号阳光时尚广场1楼B-01号,休闲餐饮,30.54605398,114.2945226,4457,2
584,江南金草帽韩式料理自助餐厅(光谷步行街店),光谷世界城广场步行街三期意大利风情街5栋4楼,休闲餐饮,30.50409812,114.4016804,4458,2
585,创和食料理店,解放大道868号美联假日酒店1楼(原天安假日酒店)(近大润发、江汉路步行街、循礼门),休闲餐饮,30.5866444,114.2765531,4473,2
586,小熊健康料理,南湖大道曙光商贸城5楼,中餐,30.4842954,114.3904703,4481,1
587,阿钱创意料理,黄陂广场2楼(纵横大酒店旁),休闲餐饮,30.8826087,114.3699553,4484,2
588,小义司料理,万松园路100号西园1层(高崎芝士蛋糕旁边),休闲餐饮,30.58785019,114.2626169,4485,2
589,小仓日本料理,珞瑜路33号珞珈创意体验城8F层808,休闲餐饮,30.52848029,114.351287,4496,2
590,慢思烤(东区商业街店),阳逻汉施路1号武汉生物工程学院商业街c149号(慢思烤),休闲餐饮,30.71511261,114.5266769,4498,2
591,樱上槿精致料理,邾城街187号文昌酒店隔壁(往一中方向),休闲餐饮,30.8487874,114.8077974,4499,2
592,汉釜宫韩式料理,东风大道经开万达金街F28-29号(杨铭宇黄焖鸡米饭隔壁),休闲餐饮,30.48103164,114.1346487,4508,2
593,缘喜精致料理,江汉路129号中心百货写字楼1423室,公司,30.58442399,114.2841235,4509,7
594,梦青春创意料理,光谷时间广场B1楼4-132室,中餐,30.4981387,114.3917823,4512,1
595,三石家日本料理,后80百仓储超2楼(近),休闲餐饮,30.55231691,114.2951035,4514,2
596,猫爪料理(后湖店),后湖街新江岸特1号天伦二七嘉园一期1栋1-2层2室,休闲餐饮,30.64245689,114.2989292,4518,2
597,和喜料理(光谷店),光谷步行街德国风情街7号楼1-2楼,休闲餐饮,30.50371081,114.4024265,4520,2
598,l兰日式自助料理,高新四路6号,休闲餐饮,30.45001971,114.4190056,4524,2
599,安藤家日本料理店,光谷步行街德国风情街2楼,休闲餐饮,30.50355023,114.402746,4527,2
600,釜山料理(绿地城),奥特莱斯4号楼,休闲餐饮,30.34600053,114.0579643,4532,2
601,捞旺盛哥锅物料理,和平大道绿地金融城饕界餐饮街二楼2-8室,休闲餐饮,30.5849419,114.3188978,4535,2
602,我家芝心年糕料理(群光店),街道口群光二期百脑汇资讯广场4楼(我家小馆隔壁),休闲餐饮,30.52762825,114.3513315,4536,2
603,老久韩式料理快餐店,藏龙岛凤凰花园二期5号,休闲餐饮,30.4426281,114.4168523,4541,2
604,雅山牛满碗奇道中式料理,珞喻路312号广埠屯武商量贩1楼,中餐,30.52438976,114.3586491,4542,1
605,乔巴料理(大成路店),司门口大成路10号(距离临江大道约50米),中餐,30.54560483,114.2901111,4543,1
606,石锅厨房(韩式料理),唐家墩路5-1号万达广场万达金街,休闲餐饮,30.61350586,114.263155,4545,2
607,樱田日本料理(虎泉街),珞喻路726号鲁巷购物广场中心华美达光谷大酒店2楼(地铁2号线光谷广场站F出口),休闲餐饮,30.50854207,114.3917559,4552,2
608,金尚宫韩式料理自助餐厅,永安大道体委对面,休闲餐饮,30.8400911,114.8024933,4554,2
609,鲜品铁板料理(江汉店),菱角湖万达室外步行街C031-C060HAPPY站台第A30A31号商铺,休闲餐饮,30.61329914,114.262767,4556,2
610,玩食分子料理(花园道店),西北湖路花园道艺术商业街B116号,休闲餐饮,30.59757038,114.2597695,4557,2
611,福尔摩斯芝士年糕料理,关山梳子桥广厦华庭3栋1层,休闲餐饮,30.50356819,114.402814,4560,2
612,小屋料理(江城学院店),纸纺地质大学江城学院夜宵棚路口对面(学府路126号),休闲餐饮,30.35024217,114.3275369,4568,2
613,鲍牛海鲜料理(万松园店),解放大道549号创世纪广场/栋A单元17层12室,休闲餐饮,30.58365588,114.2623803,4571,2
614,秋田料理(台北一路店),台北一路14号2栋1-2F,休闲餐饮,30.59513685,114.2709875,4573,2
615,偕饺毡玖侠(江汉路店),江汉路181号俊华大厦第三层,休闲餐饮,30.58551622,114.2827933,4574,2
616,久山日本料理(球场路店),球场街融科天城3期18号(香港路立交桥、球场街公交车站),休闲餐饮,30.59930499,114.2924715,4582,2
617,若爱猪肚鸡(江汉路店),江汉路118号港澳中心新世界时尚广场对面三楼(近江汉二路),中餐,30.58533425,114.2843474,4584,1
618,不老锅锅物料理(江汉路店),江汉一路19号欧利新天地2楼2004,休闲餐饮,30.58345376,114.2837668,4595,2
619,金谷一韩式料理(宜家广场店),中南路宜家广场3楼,休闲餐饮,30.54848332,114.3121289,4598,2
620,尚槿格调韩式料理,二七街解放大道2159号航天星都(汉口东部购物公园)C6栋2层01室,休闲餐饮,30.62507411,114.3112953,4602,2
621,有家料理,中山大道818号佳丽广场B1楼HAPPY站台内(民生路口),休闲餐饮,30.58166808,114.2864298,4604,2
622,三石の家日本料理(中南店),中南路中建广场负1楼,休闲餐饮,30.5370706,114.3266134,4605,2
623,清溪川韩国料理(汇食尚店),白沙洲大道黄家湖东澜岸广场2号楼二楼,休闲餐饮,30.43608651,114.2577403,4606,2
624,捞旺锅物料理(江汉路步行街店),江汉路步行街98号4楼(肯德基楼上),休闲餐饮,30.58388446,114.2854684,4607,2
625,金谷一韩式料理自助餐厅(常青店),常青花园地铁站汇和城购物中心五楼,休闲餐饮,30.64755222,114.2281426,4608,2
626,胖熊鬼味日式料理(中南钻石店),中南路中商广场写字楼33楼,休闲餐饮,30.53898013,114.3254143,4609,2
627,五粮库盘鳝大王3楼,红卫路街道建设一路4号,中餐,30.62989162,114.3624262,4624,1
628,权味欢乐谷餐厅,欢乐大道196号欢乐谷生态文化广场H-19号,中餐,30.59658812,114.3892107,4625,1
629,汉拿山(经开万达店),武汉市蔡甸区沌口经济技术开发区东风大道111号万达广场F3,休闲餐饮,30.50831047,114.168077,4628,2
630,black smith韩国料理,南水南路黄家湖东澜岸一楼商铺(武汉科技大学对面),休闲餐饮,30.43631845,114.2612785,4630,2
631,韩宫宴炭火烤肉(武汉国际广场店),武汉市江汉区解放大道690号武汉国际广场F7,休闲餐饮,30.58315714,114.2644335,4631,2
632,神田烧肉(群光广场店),武汉市洪山区珞喻路6号群光广场F7,休闲餐饮,30.52742185,114.3493354,4633,2
633,汉拿山(群星城),武汉市武昌区徐东大街120号群星城F4,休闲餐饮,30.58616432,114.343838,4634,2
634,益寿司,武汉市武昌区美食金街8-16号,休闲餐饮,30.56754682,114.304561,4637,2
635,韩舍南国首义汇店,武汉市武昌区张之洞路151号泛悦汇F2,休闲餐饮,30.53750893,114.2987765,4639,2
636,汉拿山韩式烤肉(光谷店),武汉市洪山区珞喻路766号世界城广场F5,休闲餐饮,30.50820508,114.3992721,4645,2
637,大名古(未来美食城店),武汉市江汉区中山大道858号王府井百货B1,休闲餐饮,30.58151512,114.2864048,4647,2
638,寿司先生(王家湾摩尔城店),武汉市汉阳区王家湾龙阳大道特6号武汉摩尔城5层,休闲餐饮,30.5612312,114.2021971,4649,2
639,赤熊(凯德广场.1818店),武汉市武昌区中北路31号凯德1818B1,休闲餐饮,30.55529175,114.3346896,4651,2
640,爱尚米,武汉市洪山区卓刀泉路299号流行视窗购物广场卓豹店F2,中餐,30.50798219,114.3789562,4652,1
641,韩宫宴炭火烤肉(光谷鲁巷广场店),武汉市洪山区珞喻路726号鲁巷广场购物中心F6,休闲餐饮,30.50820395,114.3898271,4653,2
642,幸福的紫菜包饭(国广店),武汉市江汉区解放大道690号武汉国际广场B1,休闲餐饮,30.58280278,114.2654635,4660,2
643,映月梧桐新台湾料理,青年路378号万景国际1号楼商2楼,中餐,30.60763956,114.2569479,4664,1
644,Lm吖咪台湾快奢料理,菱角湖万达广场3楼(近鲜芋仙),休闲餐饮,30.61359997,114.2623358,4667,2
645,金色池塘料理美术馆循礼门店-停车场,解放大道1437号,停车场,30.59105463,114.2815168,4671,5
646,味千拉面(常青店),江汉区常青路168号(近常青五路)中百仓储超市常青店1层,中餐,30.62843971,114.2345819,4672,1
647,韩悦烤公子(唐家墩路店),江汉区唐家墩路5号菱角湖万达广场3楼(新华西路口),休闲餐饮,30.61257685,114.2626207,4674,2
648,相约地铁板烧,洪山区珞瑜路889号光谷国际广场5楼A5001N,中餐,30.5095793,114.3928028,4675,1
649,韩舍韩国烧烤特色餐厅(光谷店),光谷世界城步行街D区4楼,休闲餐饮,30.50793758,114.3972175,4676,2
650,味千拉面(奥特莱斯店),黄陂区盘龙大道51号百联奥特莱斯A区129号,中餐,30.73390187,114.2509696,4677,1
651,韩食坊(二师店),江夏区湖北第二师范学院北门楚香苑美食城13号(楠欣大药房斜对面),休闲餐饮,30.48720285,114.4404471,4678,2
652,味千拉面(大武汉1911店),发展大道208号大武汉1911A座1层(地铁2号线汉口火车站站),休闲餐饮,30.61633201,114.2575335,4680,2
653,韩日馆(庙山开发区店),普安新村97号,休闲餐饮,30.37367845,114.3336349,4683,2
654,鑫滏山韩式自助烤肉(广埠屯南极电脑广场店),珞喻路109号广埠屯南极电脑城3层,休闲餐饮,30.52727905,114.3549437,4687,2
655,美石记石锅拌饭,落雁路天立美食广场1楼,休闲餐饮,30.58862583,114.4247873,4688,2
656,局酒屋,二七路东部购物公园内,休闲餐饮,30.62566233,114.3110327,4689,2
657,巴巴爸爸韩国烤肉(湖北大学店),友谊大道湖北大学正对面二楼(天心商务宾馆楼下),休闲餐饮,30.58229301,114.3261036,4690,2
658,丸龟制面,江汉路循礼门M 商场负一楼,休闲餐饮,30.58830444,114.276431,4691,2
659,炫吧烤肉饭,前进一路锦江华庭,休闲餐饮,30.58276091,114.2631375,4692,2
660,Tori-ji,建设大道700号香格里拉大饭店B1层,休闲餐饮,30.60522558,114.277442,4693,2
661,鹿沼台,西北湖路3-85号万豪国际临湖1层A130室,休闲餐饮,30.59958084,114.2606304,4694,2
662,权金城(百脑汇店),街道口群光广场二期百脑汇5楼(地铁2号线街道口站B出口旁),休闲餐饮,30.52743142,114.3512397,4696,2
663,彼特大叔(粮道街店),粮道街256-6号,休闲餐饮,30.54928965,114.3076858,4697,2
664,韩国米舍(凯德广场店),中山大道238号凯德广场(武胜店)B1层,休闲餐饮,30.57156429,114.2624304,4698,2
665,荆州铁板烧,金樱街汉口学院附近,中餐,30.42023407,114.3092267,4699,1
666,彼得大叔,广八路,休闲餐饮,30.52783353,114.3599882,4703,2
667,韩国米舍(关山店),珞喻路78号生活剧场2楼(华中科技大学光谷体育馆对面),休闲餐饮,30.53487108,114.3594294,4704,2
668,樱花雨(司门口店),后长街80号黄鹤楼小区一期(1-2层),休闲餐饮,30.54555429,114.2944229,4706,2
669,C080饭卖铺,中山大道818号佳丽广场B1楼HAAPY站台食街,休闲餐饮,30.58122802,114.2858033,4707,2
670,汉釜宫,恒安路134号南湖都会负一楼,休闲餐饮,30.51236965,114.3087278,4708,2
671,韩尚阁,湖北工业大学内,休闲餐饮,30.48250441,114.2997127,4709,2
672,汉拿山韩式烤肉(荟聚购物中心店),长丰西路与江发路交汇处荟聚竹叶海购物中心内,休闲餐饮,30.62612254,114.1751865,4714,2
673,汉拿山韩式烤肉(凯德广场店),凯德广场,休闲餐饮,30.55513956,114.3348324,4715,2
674,吉野家(南国昙华林店),中山路昙华林202号南国昙华林B1层(螃蟹岬公交站),休闲餐饮,30.55440438,114.3108358,4718,2
675,有滋味时尚餐厅,江岸区东部购物广场2楼尚槿韩式料理对面,休闲餐饮,30.62533486,114.3113543,4724,2
676,有滋有味时尚餐厅,东部购物广场2楼尚槿韩式料理对面,休闲餐饮,30.63169586,114.3173683,4726,2
677,金地广场-西区,湖北省武汉市洪山区团结大道,购物中心,30.60551791,114.3775325,4731,3
678,仟吉(沿港路店),十九街坊沿港路10号,休闲餐饮,30.63992355,114.3976585,4734,2
679,金地广场-东区,湖北省武汉市洪山区团结大道,购物中心,30.60704365,114.3805786,4735,3
680,att时尚广场,红钢四街1附2号,购物中心,30.63995903,114.3947882,4737,3
681,攀峰蛋糕,工业四路12附12,休闲餐饮,30.6274739,114.3992986,4738,2
682,沿港路购物广场,沿港路5号,购物中心,30.63994062,114.3984518,4744,3
683,皇冠蛋糕(红钢三街店),青扬十街1栋7号,休闲餐饮,30.64252288,114.3938084,4749,2
684,仟吉西饼(建七店),和平大道青扬十街商业二区2-33号(中信银行旁),休闲餐饮,30.64123486,114.3947336,4756,2
685,芙蓉兴盛便利超市(国苗便利店),工人村街道二十一号公路青和居11栋-2501门口,便利店,30.64849703,114.4168814,4941,4
686,红盛便利店,武汉市青山区3街坊71门4号,便利店,30.64737673,114.3989338,4971,4
687,芙蓉兴盛便利超市(智和路),湖北省武汉市洪山区友谊大道智和路东方丽锦东区西门,便利店,30.61805577,114.3952531,5008,4
688,冷饮批发,湖北省武汉市青山区冶金105街坊物业小区(黄州街北),休闲餐饮,30.62575506,114.3965206,5015,2
689,丽红超市(火炬店),湖北省武汉市青山区冶金火炬大厦(冶金大道南),便利店,30.63199382,114.4044556,5054,4
690,中百超市(三街坊店),红钢三街16号,便利店,30.64634565,114.4014998,5068,4
691,武钢工业品超市,湖北省武汉市青山区青王路11-1号,便利店,30.60506322,114.4339789,5073,4
692,中百超市(冶金街店),冶金一街25号,便利店,30.63543182,114.3919571,5077,4
693,中百超市(现代花园140),友谊大道979号,便利店,30.62185602,114.4012399,5088,4
694,丽红超市(一零四街店),随州街9附24号,便利店,30.62761157,114.3992187,5091,4
695,小雨超市,武汉市青山区青宜居10栋,便利店,30.64595273,114.4137595,5095,4
696,中百超市(和平大道店),武汉市青山区和平大道1095附6,便利店,30.6453163,114.4122444,5097,4
697,中百超市(新家园店),工业路22,便利店,30.6272899,114.381344,5107,4
698,中百超市(工业四路店),工业四路3号碧苑花园4期A区29栋98单元1层108-114,便利店,30.63108936,114.4014185,5110,4
699,中百超市(东华园店),青山区二七新四村路14号,便利店,30.64359563,114.3866646,5134,4
700,丽红超市(青山区工人村街社区卫生服务中心东北),和平大道1095附13号,便利店,30.64642051,114.4162728,5140,4
701,继发超市(总店),和平大道1095附44号,便利店,30.64487969,114.4165686,5142,4
702,丽红超市(现代花园二分店),湖北省武汉市青山区现代花园(友谊大道南),便利店,30.62110553,114.4003146,5146,4
703,中百超市(白马馨居分店),湖北省武汉市洪山区白马馨居1期3号楼,便利店,30.60180377,114.4099877,5163,4
704,丽红超市(109街店),恩施街26附23,便利店,30.62344617,114.3929069,5171,4
705,丽红超市(工人村街凤凰社区西北),和平大道1095附13,便利店,30.64526543,114.4133755,5176,4
706,丽红超市(112街分店),恩施街14附5号,便利店,30.62334887,114.3869686,5194,4
707,中百超市(依江畔园店),临江大道866号,便利店,30.63948816,114.3774807,5195,4
708,中百超市(24街店),武汉市青山区红钢城24街坊特1号1楼,便利店,30.63776848,114.3919436,5222,4
709,中百仓储(工业一路店),武汉市冶金大道6号,便利店,30.63135727,114.3862591,5226,4
710,丽红超市(杨春湖景苑店),友谊大道1387附24-25,便利店,30.62219428,114.4098307,5237,4
711,中百超市(兴达店),工业三路46附16,便利店,30.62621412,114.3948378,5244,4
712,中百超市(青宜居店),青山区和平大道青宜居小区4栋10号1-2层,便利店,30.6457263,114.4151074,5245,4
713,丽红超市(临江港湾店),青山区临江大道建设十一路临江港湾30号,便利店,30.65374618,114.4069527,5255,4
714,菊香超市,建设三路45街坊1号,便利店,30.6323247,114.371325,5260,4
715,中百超市(青扬十街店),青扬十街4栋6-7号,便利店,30.64352175,114.3958096,5262,4
716,中百超市(青翠园店),青翠园二期2栋1层1-2号,便利店,30.62133135,114.3848781,5264,4
717,中百超市(建四一店),43街坊新奥风尚一单元1层4号，二单元1层5号,便利店,30.62952447,114.37906,5269,4
718,丽红超市(石化店),长阳街4附2号,便利店,30.65678836,114.4290664,5272,4
719,鸿润超市,湖北省武汉市青山区工人村青和居二期(新村路北),便利店,30.64772636,114.4150883,5281,4
720,盛隆五金土产劳保超市,厂前路8号,便利店,30.61551122,114.4304389,5287,4
721,鑫鸣超市批发经营部,武汉市青山区长阳街15,便利店,30.6572304,114.4333021,5291,4
722,武商量贩(友谊店),青山区友谊大道896号,便利店,30.61738269,114.3722784,5296,4
723,中百超市(旅大街店),旅大街3号,便利店,30.62996092,114.3673844,5301,4
724,琪嘉超市,武汉市洪山区白马馨居53,便利店,30.6027351,114.4109597,5305,4
725,菜夫人,湖北省武汉市青山区工人村街道建设十一路七星天兴花园,便利店,30.64820038,114.4159496,5308,4
726,丽红超市(一一六街店),青山区建设三路27号,便利店,30.62570804,114.377384,5336,4
727,中百超市(景胜花园店),祥丰路景胜花园5号楼一楼,便利店,30.61210461,114.376541,5337,4
728,大精武超市(武汉市和平乡环卫所东店),仁和路幸福人家菜馆旁(武汉市和平乡环卫所东),便利店,30.61417523,114.3814005,5349,4
729,中百超市(港东名居店),湖北省武汉市青山区友谊大道路罗家港3-121-123号,便利店,30.60606666,114.3648854,5352,4
730,粤汉超市,湖北省武汉市洪山区武汉站布丁酒店,便利店,30.60945493,114.4205962,5355,4
731,中百超市(随州街店),武汉市青山区随州街28附6,便利店,30.62745464,114.400106,5366,4
732,中百超市(49街店),四十九街坊30号楼,便利店,30.629099,114.3636703,5367,4
733,丽红超市(建设六路店),红钢一街与建设六路交叉处附近,便利店,30.64374974,114.3859851,5378,4
734,睿哲超市,白马馨居二期10-5,便利店,30.60547773,114.4221238,5386,4
735,中百超市(向阳路店),青山区向阳路18号,便利店,30.65753569,114.435707,5388,4
736,中百超市(石化一区店),长阳街10号,便利店,30.65675672,114.4297359,5392,4
737,中百超市(吉林街店),吉林街14号,便利店,30.6236951,114.3696232,5394,4
738,联合一百百信度超市,仁和路167号附近,便利店,30.6033978,114.3852107,5397,4
739,燕客隆平价超市,湖北省武汉市青山区红旗加油站附近,便利店,30.60165287,114.4340632,5399,4
740,德德超市,武汉市青山区天兴花园44栋,便利店,30.65074933,114.4104682,5408,4
741,红东方百货超市,东方红花园附近,便利店,30.62098044,114.3957501,5410,4
742,好宜家超市(欢乐星城店),湖北省武汉市洪山区欢乐大道欢乐星城2栋,便利店,30.59412474,114.3790946,5422,4
743,富丽超市,建设十一路七星天兴花园40栋1楼,便利店,30.65001187,114.4101088,5437,4
744,小小平价超市,工人村街道建设十一路七星花园44栋1003,便利店,30.65089814,114.4104555,5442,4
745,丽红超市(柴林分店),湖北省武汉市青山区南干渠路14号,便利店,30.61756693,114.3640679,5452,4
746,丽华超市,武汉市洪山区丽华苑9-5,便利店,30.59806444,114.3574297,5459,4
747,丽红超市(钢都店),湖北省武汉市青山区友谊大道780,便利店,30.61458219,114.3656339,5463,4
748,学生超市,旅大街武汉科技大学青山校区(西门)附近,便利店,30.62612908,114.3611919,5472,4
749,中百超市(金鹤园店),建设一路金鹤园小区,便利店,30.61151645,114.371009,5506,4
750,理工大学-二超市,武汉理工大学余家头校区内,便利店,30.60860233,114.3543768,5515,4
751,鑫旺源超市,建三路与本溪街交叉处附近,便利店,30.6319447,114.3741057,5524,4
752,临江港湾生鲜超市,湖北省武汉市青山区武丰一路临江港湾(青山港附近),便利店,30.65294479,114.4077847,5567,4
753,武汉理工大学-三超市,武汉理工大学余家头校区内,便利店,30.60961809,114.3514208,5572,4
754,诚信生鲜超市,湖北省武汉市青山区工人村街道红钢二街七星天兴花园,便利店,30.65291277,114.4063228,5574,4
755,芙蓉兴盛超市,团结大道1026附52,便利店,30.59378016,114.3590127,5581,4
756,丽红超市(NO.42),三弓路32附6,便利店,30.61498783,114.3687807,5642,4
757,无印良品(奥山世纪广场店),武汉市青山区和平大道809号奥山世纪广场F1,休闲餐饮,30.61947571,114.355074,5644,2
758,丽红超市(青教分店),湖北省武汉市青山区三弓路5号(阳光健身游泳中心对面),便利店,30.62384419,114.3617275,5658,4
759,丽红超市(园林路店),园林路74号,便利店,30.61230756,114.3646111,5662,4
760,欢乐商亭,东湖生态旅游风景区欢乐大道196号,休闲餐饮,30.59711624,114.3885857,5664,2
761,银泰百货(天一店),武汉市青山区辽宁街13号,中餐,30.62246246,114.3751997,5667,1
762,丽红超市(NO.a2),湖北省武汉市青山区南干渠路钢都花园126街坊北门,便利店,30.61424116,114.3589266,5669,4
763,丽红超市(49街分店),旅大街7号,便利店,30.63031408,114.3674161,5671,4
764,丽红超市(建一路店),青山区建设一路16号,便利店,30.62099954,114.36979,5673,4
765,刚飞超市,园林路84附4,便利店,30.61003359,114.3659329,5675,4
766,丽红超市,武汉市青山区钢花村街道109北门,便利店,30.62258205,114.3752005,5676,4
767,邦多超市(仁和路),武汉市洪山区青城华府g10栋1311室,便利店,30.61713326,114.3820111,5680,4
768,芙蓉兴盛便利超市(NO.鄂.2652),湖北省武汉市洪山区和平街道北洋桥路菁华园箐华园南门,便利店,30.60979438,114.3773613,5723,4
769,武汉起点人力资源市场,湖北省武汉市武昌区武珞路114-1号,公司,30.54275253,114.3051843,5772,7
770,武汉市人才服务中心,湖北省武汉市江岸区车站路1号,公司,30.59109896,114.2978979,5787,7
771,武汉吉人不锈钢大市场,湖北省武汉市东西湖区田园大道117号,公司,30.62456224,114.1037433,5813,7
772,洪山区人力资源服务中心,湖北省武汉市洪山区珞狮路198附2号,公司,30.51804419,114.3444732,5879,7
773,民主路广告工业园,民主路443附3号,公司,30.54721628,114.3047062,5956,7
774,武汉市黄陂区人才市场,百秀街249号,公司,30.88595244,114.3670998,5960,7
775,武汉市晨星农产品市场建设有限公司,武汉市~口区市场北二路与市场西一路交叉口东北100米,公司,30.61892618,114.1471073,6111,7
776,武汉天时地利市场研究有限公司,武汉市洪山区珞狮路451号狮城翰园1栋804号,公司,30.51006595,114.3434076,6280,7
777,阳逻人才市场,武汉市新洲区平江西路33号,公司,30.66491124,114.5579539,6297,7
778,首义园市场,武汉市武昌区彭刘杨路232号,中餐,30.54141576,114.2984497,6354,1
779,阳光批发超市,湖北省武汉市汉阳区琴断口紫荆花园(紫荆路西),便利店,30.5599037,114.2154413,6402,4
780,85度C(世界城广场店),武汉市洪山区珞喻路766号世界城广场B1,休闲餐饮,30.50841211,114.3987908,6486,2
781,武汉云图测绘专卖店,湖北省武汉市~口区建设大道382-7,公司,30.58811868,114.2486204,6498,7
782,天堂用品专卖店,湖北省武汉市新洲区邾城街道南安街育苗幼儿园,公司,30.84230491,114.791758,6834,7
783,殡仪用品专卖店,湖北省武汉市新洲区陶家田仓溪路武汉仓埠长途客运站附近,公司,30.83645284,114.6010943,6835,7
784,西蒙电气专卖店,湖北省武汉市黄陂区汉口北五金机电城,公司,30.70964513,114.3180647,6877,7
785,雪糕冰淇淋专卖店,湖北省武汉市新洲区双柳街道杨林中路宏伟家电旁,休闲餐饮,30.5912902,114.6444656,6979,2
786,向氏皮鞋平价超市,湖北省武汉市蔡甸区彩票销售店(玉贤路),便利店,30.52516346,113.9794042,7000,4
787,迪士尼童装(汉正街店),武汉市~口区多福路特58号汉正街品牌服饰批发广场B1,公司,30.57252933,114.27214,7122,7
788,飞达鱼需鱼药物资用品商店,湖北省武汉市新洲区阳光大道阳逻明涛驾校第四培训基地,公司,30.6687598,114.5666063,7265,7
789,殡葬用品直销店,新洲区036县道南50米,公司,30.79963958,114.7060911,7396,7
790,殡葬用品薄利店,湖北省武汉市黄陂区前川钱岗路江北公寓,公司,30.88527308,114.3576008,7400,7
791,香酱千层饼,湖北省武汉市青山区青化路(铭扬五金建材劳保用品店东),中餐,30.59699242,114.4559266,7443,1
792,爱萍喜庆用品专卖,南安街128号号附近,公司,30.84201409,114.7951795,7614,7
793,湖北武科大自费出国留学服务中心,武汉科技大学青山校区内,公司,30.6241355,114.3645102,7874,7
794,武汉苏博新型建材有限公司,青山区保华路B8号,公司,30.63295926,114.4238584,7893,7
795,曲高地板厂驻厂前仓库,三环线附近,公司,30.62472566,114.4186215,8126,7
796,武汉大学信息学部-学生就业指导与服务中心,武汉市洪山区八一路299号武汉大学信息学部内,公司,30.53089264,114.3539267,8362,7
797,海旅百事通国际旅行社(沿港路营业部),沿港路12附1,公司,30.63913926,114.3973459,8507,7
798,湖北万达新航线国际旅行社(建一门店),建设一路27附23号,公司,30.62370721,114.3681316,8512,7
799,湖北易游天下国际旅行社,黄州街22号附1号,公司,30.63181974,114.3861237,8513,7
800,旅游百事通,湖北省武汉市青山区建设二路钢花新村118号附近,公司,30.62181356,114.3753403,8514,7
801,宝中旅游(和平大道建一门市),武汉市青山区和平大道建设一路10-3号,公司,30.62424588,114.3669919,8517,7
802,康辉假日旅行社(工业一路门市部),友谊大道893附1号,公司,30.62190988,114.3862489,8518,7
803,湖北万达新航线国际旅行社(青山建八门店),红钢三街23附15号,公司,30.64477765,114.3977164,8520,7
804,中航旅业国际旅行社有限公司青山109门市部,恩施街26附18,公司,30.62343929,114.3925239,8522,7
805,金世纪国际旅行社,湖北省武汉市青山区工业四路13附1,公司,30.62706324,114.3997283,8528,7
806,宝中旅游(建设八路营业部),建设八路9附9,公司,30.64461697,114.3965063,8533,7
807,宝中旅游(青山工业三路营业部),青山区工业三路46附8号,公司,30.62676778,114.3948347,8534,7
808,湖北易游天下国际旅行社建三门市部,湖北省武汉市青山区建设三路本溪街6号悦邦大酒店内,公司,30.62771641,114.3751643,8535,7
809,湖北历程国际旅行社,工业四路5附35,公司,30.62887123,114.3997926,8537,7
810,旅游百事通,湖北省武汉市青山区四十九街住宅小区南80米(旅大街),公司,30.62901974,114.365341,8539,7
811,海旅百事通国际旅行社(青山建二店),建设二路59,公司,30.6218458,114.3751542,8540,7
812,中南国际旅游公司,红钢三街21附31,公司,30.6433047,114.3947278,8544,7
813,康辉旅行社(武商众圆广场店),湖北省武汉市青山区和平大道959号武商众圆广场5楼,公司,30.62826069,114.3710346,8546,7
814,幸运乐游国际旅行社(黄州街门市),湖北省武汉市青山区黄州街31,公司,30.6257865,114.3892668,8547,7
815,旅游百事通,湖北省武汉市青山区红钢二街13-16号附近,公司,30.64280128,114.389063,8549,7
816,中国国际旅行社(建一门市部),友谊大道813附5,公司,30.61912053,114.3745654,8550,7
817,易游天下国旅(青翠苑门市店),湖北省武汉市青山区黄州街22附1,公司,30.62554493,114.3885802,8552,7
818,宝中旅游(青山钢花营业部),工业一路40,公司,30.62293309,114.3858383,8554,7
819,湖北省中国青年旅行社(建一直营门市部),建设一路27附20号,公司,30.62389624,114.3680307,8564,7
820,中南国际旅行社(治金大道分社),冶金大道14附9号出租车上下客站附近,公司,30.63296466,114.3944011,8566,7
821,湖北海旅百事通国际旅行社有限公司聚鑫大酒店门市部,工业一路35附3号,公司,30.62191838,114.3890383,8571,7
822,宝中旅程国际旅行社(青山118街营业部),辽宁街80,公司,30.62374536,114.3779227,8572,7
823,中南国际旅游公司(友谊大道门市部),建设一路62号,公司,30.61914302,114.371388,8574,7
824,武汉钢东供电营业厅,武汉市青山区工业二路34号,公司,30.62401798,114.390218,8577,7
825,湖北历程国际旅行社,沿港路10附11,公司,30.63955904,114.3974869,8580,7
826,湖北省中国青年旅行社,工业一路黄州街110街坊南门45门,公司,30.62578507,114.3871382,8581,7
827,中国电信(建七商客店营业厅),湖北省武汉市青山区红钢城工业路三路12附4门面,公司,30.63819199,114.3949513,8582,7
828,中国电信(八大家营业厅),湖北省武汉市青山区和平大道1282号,公司,30.63525435,114.3842909,8583,7
829,中国国际旅行社(118街门市部),辽宁街34号附近,公司,30.6222612,114.3755784,8585,7
830,国家电网(青山红钢城供电营业厅),武汉市青山区红钢四街4号钢城商务大厦,公司,30.63914817,114.3957463,8590,7
831,武汉常青供电营业厅,湖北省武汉市江汉区江兴路21号,公司,30.62614191,114.2267267,8592,7
832,中国移动(武昌水果湖中心营业厅),湖北省武汉市武昌区东湖路10号,公司,30.55065697,114.3387285,8594,7
833,武汉洪山供电营业厅,湖北省武汉市洪山区楚康路48号,公司,30.50763333,114.3655243,8603,7
834,中国移动(洪山路营业厅),湖北省武汉市武昌区中南路街办事处洪山路特1号,公司,30.54910564,114.3326265,8606,7
835,中国电信(积玉桥营业厅),湖北省武汉市武昌区和平大道79号,公司,30.56063511,114.3013982,8609,7
836,中国电信(沿港路营业厅),武汉市青山区武昌和平大道1542号青山百货商场1层,公司,30.6405584,114.398246,8611,7
837,中国电信(庙山营业厅),武汉市江夏区 庙山大学园路36号,公司,30.44267143,114.3799995,8614,7
838,湖北广电网络(青化路),湖北省武汉市青山区康宁路21-附3西南80米,公司,30.60576693,114.4811533,8615,7
839,武汉市天然气有限公司(金色雅园营业厅),武汉市江汉区金色雅园3期,公司,30.62925637,114.2415615,8616,7
840,中国电信(友谊大道营业厅),湖北省武汉市青山区友谊大道809号,公司,30.61882628,114.373899,8617,7
841,中国电信(华师大东区营业厅),华中师范大学东区小树林内,公司,30.5159786,114.3566942,8619,7
842,中国电信(街道口营业厅),湖北省武汉市武昌区珞珈山路303,公司,30.53353709,114.3490127,8620,7
843,武汉~口供电营业厅,武汉市~口区解放大道270号,公司,30.5788283,114.2274537,8624,7
844,中国电信(花桥营业厅),武汉市江岸区解放公园路55号,公司,30.61031003,114.2860543,8633,7
845,中国移动(球场路营业厅),湖北省武汉市江岸区球场路62,公司,30.60405605,114.2860963,8637,7
846,国家电网东新供电营业厅,湖北省武汉市江夏区光谷大道118号,公司,30.45925511,114.4135602,8639,7
847,中国移动(南湖营业厅),湖北省武汉市武昌区雅安街97号,公司,30.51220623,114.309396,8642,7
848,国家电网自助营业厅,湖北省武汉市洪山区雄楚大道476附近,公司,30.50765037,114.3657635,8645,7
849,中国移动(黄鹤楼营业厅),湖北省武汉市武昌区黄鹤楼彭刘杨路228号,公司,30.54197436,114.2944153,8655,7
850,中国移动(台北路营业厅),湖北省武汉市江岸区云林街29,公司,30.59847221,114.271614,8657,7
851,中国移动(二桥路营业厅),湖北省武汉市汉阳区龙阳大道25号,公司,30.56660035,114.2059848,8659,7
852,中国联通(文化路自有营业厅),武汉市江夏区文化路28附1,公司,30.36189636,114.3183401,8661,7
853,中国移动(经开沌口营业厅),湖北省武汉市蔡甸区宁康路58号A5栋附1号,公司,30.499888,114.1635162,8664,7
854,中国移动(铁通宽带营业厅),武汉市武昌区雄楚大街36号,公司,30.52314836,114.3125511,8667,7
855,国家电网武汉北湖供电营业厅,湖北省武汉市江汉区新华路483号,公司,30.61274799,114.2599047,8668,7
856,中国电信(中南路营业厅),湖北省武汉市武昌区中南路66附8,公司,30.54352825,114.3297165,8681,7
857,中国电信(南湖宏锦营业厅),湖北省武汉市武昌区恒安路56号,公司,30.50626283,114.3079994,8684,7
858,蔡甸自来水营业厅,武汉市蔡甸区汉阳大街63附7号,公司,30.58699877,114.0195581,8686,7
859,中国电信(佛祖岭营业厅),湖北省武汉市江夏区高新六路佛祖岭B区门口,公司,30.442003,114.4398584,8687,7
860,中国联通(自助营业厅),湖北省武汉市洪山区光谷软件园如家快捷酒店,公司,30.47619958,114.4000251,8689,7
861,国家电网自助营业厅,湖北省武汉市汉南区薇湖路218,公司,30.30906197,114.0750937,8694,7
862,新洲仓埠供电营业厅,湖北省武汉市新洲区仓埠长源供水有限公司(仓埠文化广场东),公司,30.83389349,114.6039345,8695,7
863,东西湖幸福供电营业厅,武汉市东西湖区107国道与双汇循环路交叉口,公司,30.63897102,114.0285766,8698,7
864,中国移动(新华路营业厅),武汉市江汉区新华路481,公司,30.61179299,114.2611648,8705,7
865,中国电信(万象广场营业厅),武汉市洪山区雄楚大道珞狮南路451号狮城汇F1,公司,30.51081797,114.3438269,8706,7
866,中国移动(付家坡营业厅),湖北省武汉市武昌区梅苑路17附1,公司,30.53473327,114.3196783,8708,7
867,中国电信(武汉外事外语南区营业厅),外语外事学院商业街1号,公司,30.5910737,114.4223233,8713,7
868,武汉市天燃气公司紫薇花园营业厅,武汉市~口区古田四路9附51,公司,30.59122053,114.2062937,8714,7
869,段岭庙供电营业厅,湖北省武汉市江夏区郑店镇段岭庙街东(段岭庙邮政支局南),公司,30.26873645,114.2753976,8715,7
870,中国移动(金银湖营业厅),湖北省武汉市东西湖区金银湖路,公司,30.63038965,114.1979597,8717,7
871,中国联通(武汉大学3G沃校园体验店),武汉市武昌区八一路299号武汉大学内,公司,30.54268236,114.3518587,8719,7
872,武汉有线洪山营业厅,武汉市洪山区珞喻路511号,公司,30.51916996,114.3764809,8733,7
873,中国联通24小时自助服务厅(香港路营业厅),香港路168号,公司,30.60642116,114.2811487,8734,7
874,中国电信(东湖景园营业厅),武汉市洪山区东湖景园B区联盟路口,公司,30.5861068,114.3704918,8745,7
875,中国电信(紫润明园营业厅),武汉市桥口区紫润明园38栋一楼,公司,30.62374832,114.2059888,8747,7
876,国家电网自助营业厅,湖北省武汉市江汉区新华西・美林公馆(万达百货西),公司,30.61305162,114.2599514,8748,7
877,中国电信(自助营业厅),湖北省武汉市江汉区常青路158号(近中百仓储超市),公司,30.62756703,114.2348421,8755,7
878,中国电信(虎泉营业厅),武汉市洪山区卓刀泉南路38号,公司,30.51899542,114.3626818,8757,7
879,移动营业厅,湖北省武汉市新洲区邾城街道齐安大道清安社区西区,公司,30.84878495,114.7988271,8758,7
880,中国电信(流芳营业厅),湖北省武汉市江夏区流芳老街八一路4号附近,公司,30.44464616,114.4491386,8759,7
881,中国电信(中核商城营业厅),湖北省武汉市蔡甸区中核世纪广场,公司,30.56676922,114.0559859,8768,7
882,中国移动(湖大营业厅),湖北省武汉市武昌区友谊大道368号湖北大学教育超市旁,公司,30.57810586,114.3273315,8769,7
883,国家电网(三里供电营业厅),武汉市黄陂区三里镇银湖大道127号,公司,30.78816615,114.4123128,8770,7
884,中国电信(南湖社区营业厅),湖北省武汉市蔡甸区大集南湖社区74号,公司,30.51215898,114.0923812,8776,7
885,中国移动(金水农场营业厅),武汉市江夏区金武路3号,公司,30.30061264,114.1181937,8777,7
886,中国移动(自助营业厅),湖北省武汉市洪山区武汉大学口腔医院,公司,30.52390096,114.3605938,8780,7
887,中国联通(自助营业厅),武汉市东西湖区四明路24号,公司,30.6205238,114.1364435,8781,7
888,水务集团二七营业厅,长湖地一村22号,公司,30.63528154,114.3158464,8783,7
889,中国电信(武汉商业服务学院营业厅),湖北省武汉市蔡甸区商院南区公寓5号,公司,30.45950017,114.0830587,8787,7
890,中国电信(F.雅园营业厅),湖北省武汉市黄陂区滠口巨龙大道27号,公司,30.70078626,114.2904039,8790,7
891,中国移动(邾城营业厅),武汉市新洲区齐安大道29号,公司,30.83950528,114.7988089,8791,7
892,中国电信(静安街营业厅),湖北省武汉市武昌区静安路8号,公司,30.52672225,114.3155755,8792,7
893,中国电信(大华营业厅),武汉市洪山区书城路莱茵101号,公司,30.49805516,114.3295046,8794,7
894,中国电信(径河营业厅),湖北省武汉市东西湖区十字南街160,公司,30.67855128,114.1592443,8799,7
895,中国电信(红旗渠路营业厅),湖北省武汉市江汉区红旗渠路新华家园蝶苑B区1号,公司,30.62856612,114.2570823,8802,7
896,中国联通(财大环湖营业厅),湖北省武汉市江夏区东湖高新技术开发区南湖大道182号中南财经政法大学,公司,30.47727889,114.3736285,8803,7
897,中国电信(维佳佰港城营业厅),武汉市洪山区南湖文治街30号维佳・佰港城F1,公司,30.5049997,114.3210295,8814,7
898,中国联通(新华下路营业厅),湖北省武汉市江汉区发展大道241号,公司,30.61956015,114.2596327,8817,7
899,中国电信(玫瑰湾营业厅),湖北省武汉市洪山区南湖玫瑰湾一期紫玫苑14栋104号,公司,30.48965194,114.3396989,8828,7
900,中国电信(将军路营业厅),湖北省武汉市东西湖区将军一路35号,公司,30.64676473,114.2515932,8834,7
901,中国电信(九峰营业厅),湖北省武汉市洪山区高新区森林大道九峰王家店景源里社区(中共洪山区九峰乡委员会东),公司,30.50544881,114.4767228,8839,7
902,中国移动(卧龙剑桥营业厅),湖北省武汉市洪山区珞喻路888附67号,公司,30.50865785,114.4163217,8840,7
903,中国电信(武汉船舶职业技术学院营业厅),庙山开发区武汉信息传播学院校内祥和超市中(新沟镇),公司,30.56921671,114.2328764,8841,7
904,中国移动(崇仁路合作营业厅),武汉市~口区中山大道131号附8号,公司,30.5717982,114.2554668,8842,7
905,中国移动(泰合营业厅),湖北省武汉市蔡甸区三角湖路11附2,公司,30.50992581,114.1538304,8843,7
906,中国移动(后湖二路营业厅),湖北省武汉市江岸区后湖二路67附4号,公司,30.64234646,114.2833434,8848,7
907,中国电信(大桥营业厅),湖北省武汉市江夏区大桥镇三岭路特1号,公司,30.41225235,114.3017308,8853,7
908,中国电信(仓埠营业厅),湖北省武汉市新洲区武滨路60号,公司,30.83956084,114.6021341,8882,7
909,中国移动(荷叶山营业厅),湖北省武汉市洪山区关东园五路钢铁综合市场1层,公司,30.5038582,114.4467503,8884,7
910,中国电信(中国地质大学西区营业厅),洪山区鲁磨路485中国地质大学西区西二路天桥下边,公司,30.52274322,114.3957958,8894,7
911,中国电信(龙城路营业厅),湖北省武汉市江夏区龙城路中谷苑东南门对面,公司,30.4667501,114.3770531,8912,7
912,中国电信(横店营业厅),武汉市黄陂区横店街中百仓储1层,公司,30.80093308,114.288424,8915,7
913,中国电信(自助营业厅),湖北省武汉市~口区华中建材商铺A3-103,公司,30.60129553,114.215703,8916,7
914,中国移动(九峰营业厅),湖北省武汉市洪山区百合路与群建小路交叉口西北(九峰乡人民政府东北),公司,30.50668094,114.4768462,8917,7
915,中国移动(自助营业厅),湖北省武汉市黄陂区双凤路580,公司,30.87825485,114.3678696,8924,7
916,中国移动(三里桥营业厅),武汉市黄陂区银湖大道152号,公司,30.78452962,114.415847,8925,7
917,中国电信(蝙蝠街营业厅),武汉市蔡甸区蝙蝠街63,公司,30.58979729,114.0270593,8929,7
918,中国电信(龙泉营业厅),湖北省武汉市江夏区龙泉玉屏路,公司,30.39143835,114.5315473,8931,7
919,新白鹿餐厅(张杨路店),湖北省武汉市江汉区淮海路,中餐,30.60172603,114.2400944,8933,1
920,武汉索河供电营业厅,嵩阳路19,公司,30.52893585,113.8991053,8938,7
921,中国电信(刘店合作营业厅),湖北省武汉市黄陂区盘龙城巨龙大道27号,公司,30.6974319,114.3077278,8944,7
922,中国联通(佳海合作营业厅),湖北省武汉市黄陂区佳海都市工业城盘龙购物广场旁,公司,30.73348497,114.2336519,8945,7
923,中国联通(永强合作营业厅),湖北省武汉市武昌区双柏前街20号,公司,30.55143866,114.3039997,8946,7
924,中国联通(汉北康城营业厅),湖北省武汉市黄陂区汉北康城(汉口北大道南),公司,30.69741578,114.3076617,8950,7
925,中国电信(三眼桥北路营业厅),湖北省武汉市江汉区三眼桥北路22号,公司,30.61445896,114.2715873,8953,7
926,中国电信(城投瀚城营业厅),湖北省武汉市洪山区楚康路300号城投瀚城309栋,公司,30.50284071,114.3645978,8955,7
927,中国移动(自助营业厅),湖北省武汉市武昌区友谊大道368湖北大学,公司,30.57730646,114.3268115,8972,7
928,中国电信(松涛苑营业点),湖北省武汉市武昌区南湖街办事处南湖花园松涛苑平安路312号,公司,30.51511858,114.3141499,8974,7
929,中国移动(古驿道营业厅),湖北省武汉市江夏区古驿道国税局旁,公司,30.35825755,114.3141831,8977,7
930,中国电信(军安营业厅),武汉市新洲区大菜场斜对面平江路130号,公司,30.65832116,114.5645133,8989,7
931,青山区法律援助中心,鄂州街10号,公司,30.63089303,114.3920374,8990,7
932,湖北羚圣律师事务所,武汉市青山区和平大道1290号青山广场14层03,公司,30.63788139,114.3897267,8992,7
933,湖北圣青律师事务所,118街68门1号,公司,30.6200872,114.3764739,8993,7
934,湖北扬子律师事务所,和平大道955号江城广场b座19-a3,公司,30.62731915,114.3692603,8996,7
935,湖北静海律师事务所,和平大道1284中银大厦11B,公司,30.63615416,114.3858378,8997,7
936,大华会计师事务公司青山工作部,友谊大道,公司,30.62190995,114.3878886,8998,7
937,武汉天志会计师事务所,友谊大道1096,公司,30.62140062,114.3853403,8999,7
938,湖北华廷律师事务所,友谊大道986,公司,30.62033654,114.3781129,9000,7
939,春笋墙材,工人村路238号附近,公司,30.63677495,114.4172071,9001,7
940,武汉钢铁(集团)公司,湖北省武汉市青山区环厂西路武汉钢铁(集团)公司,公司,30.63347565,114.4307171,9002,7
941,武汉钢铁股份有限公司营销总公司,武汉市冶金大道160号,公司,30.62483307,114.4258459,9004,7
942,武汉正康法律服务事务所,武汉市青山区友谊大道833-835,公司,30.62097582,114.3786124,9005,7
943,武汉宏青运贸有限公司,工人村都市工业园园区,公司,30.63510872,114.4237073,9006,7
944,恒瑞集团,武汉市青山区工人村都市工业园b5区企业路3号,公司,30.63191863,114.4200106,9010,7
945,武钢物流仓储分公司丝茅墩库,保华路与青发路交叉口东50米,公司,30.6381777,114.4232465,9017,7
946,武钢一炼钢厂,武汉市青山区,公司,30.63117203,114.4411118,9019,7
947,中国一冶高新技术产业园,武汉市冶金大道387号,公司,30.62281541,114.4313392,9020,7
948,中冶集团武汉勘察研究院有限公司,湖北省武汉市青山区冶金大道17号,公司,30.63374945,114.3933227,9022,7
949,奥鑫市政建设公司沥青混凝土搅拌站,冶金大道铁珞山小博士幼儿园直走,公司,30.62594877,114.4295753,9025,7
950,武汉市武钢交运光大汽车运输公司,工人村都市工业区内,公司,30.63250522,114.4264523,9028,7
951,诚信机械加工厂,冶金大道102号,公司,30.62857531,114.420133,9033,7
952,武汉路源混凝土有限公司,和平乡厂前村6组杨春湖路,公司,30.62398227,114.4117037,9035,7
953,武汉鑫三磊物流有限公司(湖北三磊实业集团),武汉市青山区工人村路,公司,30.631762,114.4224372,9037,7
954,厦工机械,武汉市青山区冶金大道82号,公司,30.6292967,114.4192254,9038,7
955,武汉廖氏超博机电设备有限公司,武汉市青山区,公司,30.63283199,114.4267819,9040,7
956,武汉武新新型建材有限公司,武汉市青山区工人村特1号(武钢14号门内),公司,30.64637542,114.4336632,9041,7
957,武汉宇宙科技有限公司,武汉市青山区工人村路291号都市工业园,公司,30.63696352,114.4224847,9042,7
958,武汉钢铁集团物流有限公司,武汉市冶金大道160号,公司,30.62477998,114.4258253,9046,7
959,公交第六营运公司,建设十一路水泥一路,公司,30.63808837,114.4081622,9054,7
960,红地公司,环厂北路南50米,公司,30.63792714,114.4254639,9057,7
961,武汉青山(国家)循环经济示范工业园区,工人村路与青发路交叉口东150米,公司,30.63034228,114.4220142,9058,7
962,武汉市天宝工程机械有限责任公司,工人村路204号,公司,30.6388676,114.4198689,9062,7
963,武汉重工连铸设备有限公司,武汉市青山区工人村路,公司,30.63167129,114.4234286,9065,7
964,武钢集团财务公司,沿港路3,公司,30.64103818,114.398426,9066,7
965,武钢金资公司冶金渣分公司,武汉市青山区,公司,30.64154428,114.4241213,9067,7
966,泰隆尔测控工程(武汉)公司,青山开发区环保科技园(油坊岭)1号,公司,30.62649301,114.4110677,9073,7
967,武钢烧结厂,湖北省武汉市青山区武钢集团公司环厂西路武钢烧结厂,公司,30.63620403,114.437778,9074,7
968,钢华物流中心,工人村路239号附近,公司,30.63832339,114.4254292,9078,7
969,中国太平洋保险(集团)股份有限公司(武汉市青山支公司),冶金大道厂前一冶高新技术工业园一号楼,公司,30.62232964,114.4303142,9083,7
970,长城宽带(冶金客户服务中心),冶金106街123门2号,公司,30.62201977,114.3981668,9084,7
971,青山区冶金金宏建筑材料租赁公司,冶金大道57号,公司,30.63117246,114.4123069,9091,7
972,武汉海石密封公司,冶金大道50号,公司,30.63239151,114.4032789,9092,7
973,武汉兴畅工贸物资有限公司,工人村路223,公司,30.64656834,114.4193938,9093,7
974,武钢建工集团建设公司工安工程处,冶金大道104号,公司,30.62614776,114.4214393,9094,7
975,武汉正兴磁性材料有限公司,工人村都市工业区内,公司,30.63298805,114.4263448,9100,7
976,武汉市青山锅炉厂,冶金大道63号,公司,30.63093633,114.4142118,9104,7
977,中治武汉冶金建筑研究院有限公司工业炉工程技术研发基地,武汉市青山区环厂北路,公司,30.63720807,114.4268326,9108,7
978,武汉金穗集团公司,工人村都市工业区内,公司,30.63283199,114.4267819,9113,7
979,中力物流公司(武东分公司),湖北省武汉市青山区冶金大道61号,公司,30.63218311,114.4123942,9118,7
980,武汉市祺福制衣厂,工业四路5,公司,30.63068891,114.4001991,9123,7
981,武汉一冶建安商品混凝土分公司,工人村都市工业区内,公司,30.63617291,114.4255645,9124,7
982,武汉钢实港兴运输机械设备制造有限公司,滨港路55号,公司,30.62617847,114.4045506,9135,7
983,武汉企发绿化道路工程有限责任公司,冶金大道273号,公司,30.62608175,114.4250444,9136,7
984,拜尔液压动力公司,火炬大厦505/506/509/510,公司,30.63204166,114.4041004,9140,7
985,武钢焦化协力厂塑料编织袋厂,湖北省武汉市青山区二十一号公路武汉市工人村派出所南,公司,30.64574224,114.4238504,9141,7
986,武汉华麟科技有限公司,和平大道1560号,公司,30.6292967,114.4192254,9143,7
987,武汉钢实储运材料有限责任公司,湖北省武汉市青山区建设十路基督教青山堂东北200米,公司,30.63638408,114.4032228,9155,7
988,武钢企发快餐食品饮料公司运输公司,冶金大道283附近,公司,30.6257175,114.4266171,9159,7
989,武汉钢铁(集团)公司储运公司,湖北省武汉市青山区冶金大道中国一冶厂前单身公寓西北,公司,30.62477779,114.4244626,9174,7
990,武钢炉窑协力厂,湖北省武汉市青山区厂前街道团结大道丽红购物广场东,公司,30.61258821,114.433972,9177,7
991,武钢后勤集团综合服务公司,湖北省武汉市青山区冶金大道铁烙山公交站(中国建设银行西),公司,30.6257417,114.4248441,9183,7
992,武汉瑞普,丁字桥路99号,公司,30.62588891,114.4109587,9188,7
993,中共一冶机械安装工程公司委员会,友谊大道与冶金大道交叉处附近,公司,30.62281034,114.4297699,9195,7
994,中共武汉冶建安装工程有限责任公司委员会,湖北省武汉市青山区冶金大道188号西50米,公司,30.62314779,114.4277413,9214,7
995,武汉市仁和灰砂制品公司,冶金大道291附近,公司,30.62601533,114.4283701,9218,7
996,河南省通用起重设备有限公司武汉分公司,冶金大道136,公司,30.62620871,114.4239947,9219,7
997,武汉郑青松文化咨询有限公司,武汉市青山区125街坊119门1303号,公司,30.62968265,114.4324094,9226,7
998,武汉冶建安装工程公司,厂前派出所附近,公司,30.62359969,114.4277723,9232,7
999,湖北维嘉防水科技有限公司,湖北省武汉市青山区友谊大道钢城华荣市场,公司,30.62261966,114.4279991,9269,7
1000,武汉海天龙,都市工业园南E区9号,公司,30.63697677,114.4257194,9278,7
1001,鑫亚工贸,工人村都市工业区内,公司,30.63656764,114.4250032,9279,7
1002,武汉江南环能热水配送有限公司,环厂北路南50米,公司,30.63792714,114.4254639,9281,7
1003,武汉启元经济发展有限责任公司,友谊大道与友谊大道立交交叉口南150米,公司,30.62066645,114.4232831,9285,7
1004,武汉中兴通液,厂前一冶高新工业园4号楼4楼,公司,30.62280446,114.4295405,9287,7
1005,武钢实业印刷总厂-纸制品厂,湖北省武汉市青山区建设十路武汉市二轻工业学校西北,公司,30.63431173,114.4058412,9291,7
1006,武汉建泰管桩有限公司,工人村路附近,公司,30.63434544,114.4205377,9297,7
1007,中钢集团安全环保研究院武汉市人越热工技术产品公司,湖北省武汉市青山区冶金街道北洋桥路杨春湖景苑北150米,公司,30.62478513,114.408304,9303,7
1008,坤元生物,武汉市青山区青城华庭东门,公司,30.62710329,114.4025298,9320,7
1009,北洋桥集团,北洋桥光大粮油批发市场A3A号,公司,30.6135754,114.4048774,9327,7
1010,金盛源彩钢结构公司,厂前钢材市场D区623号,公司,30.62303433,114.4155375,9328,7
1011,八街科技人才园,红钢二路25,公司,30.64536378,114.3934635,9329,7
1012,九龙宫纪念园青宜居白事一条龙服务中心,湖北省武汉市青山区工人村青山区钢城第四小学(和平大道北),公司,30.64644448,114.4140912,9330,7
1013,武汉检安石化工程公司制造分公司,二十一号公路北100米,公司,30.64759183,114.424311,9340,7
1014,武汉钢铁集团兴达经济发展有限责任公司项目经营中心,工业二路1附1,公司,30.63607162,114.3909487,9350,7
1015,武钢实业印刷总厂-亚华防锈材料厂,湖北省武汉市青山区武钢实业印刷总厂(建设十路南),公司,30.63541813,114.4035879,9357,7
1016,武汉钢铁集团兴达经济发展有限责任公司设备修造厂,湖北省武汉市青山区市政侧街新桥社区西50米(青山广场东),公司,30.637454,114.3910037,9360,7
1017,武汉天兴计算机工程有限责任公司,火炬大厦17层1709/1710,公司,30.63204166,114.4041004,9368,7
1018,湖北新锐科贸公司,和平大道1284中银大厦17D,公司,30.63615517,114.3858378,9369,7
1019,祥龙装璜,湖北省武汉市青山区红钢城五街坊西北门,公司,30.6463087,114.3966948,9374,7
1020,湖北念民置业有限公司,武汉市青山区建设五路中银大厦21楼a,公司,30.63615517,114.3858378,9379,7
1021,武汉世纪共赢投资有限公司,青山区青少年宫附近,公司,30.63532431,114.4012696,9385,7
1022,武汉景天经贸公司,和平大道1284中银大厦9层,公司,30.63615416,114.3858378,9390,7
1023,武钢艾克普,楠姆社区附近,公司,30.6266848,114.404114,9391,7
1024,武汉先诚商贸有限公司,红钢三街22附23号附近,公司,30.64518238,114.3983666,9394,7
1025,武汉华超运贸有限公司,和平大道1290号青山广场B座13楼,公司,30.63788232,114.3897267,9399,7
1026,武汉金利源物流有限公司,和平大道1284号中银大厦20A,公司,30.63615439,114.385838,9400,7
1027,湖北涵润装饰设计工程有限公司,武汉市青山区雅苑公寓6号,公司,30.63792212,114.388187,9403,7
1028,铎文机电设备工程公司,和平大道1284中银大厦11D,公司,30.63615517,114.3858378,9409,7
1029,武汉兴达建筑安装工程有限责任公司,市政侧路1,公司,30.63817501,114.3913406,9411,7
1030,三达经济发展公司,中银大厦8A,公司,30.63615517,114.3858378,9412,7
1031,武汉钢铁(集团)公司老干部管理服务中心,建设八路2附1,公司,30.64842804,114.3933316,9413,7
1032,武钢源通生态农业武汉有限公司,红钢二街16,公司,30.64322867,114.3905051,9415,7
1033,武汉钢铁工程技术集团有限责任公司,和平大道1290号青山广场6层,公司,30.63788139,114.3897267,9416,7
1034,东申贸易有限责任公司,和平大道1284中银大厦15ABC,公司,30.63615517,114.3858378,9418,7
1035,中山金属材料公司,中银大厦13ABDE,公司,30.63615517,114.3858378,9421,7
1036,铁合金退管办,建设七路3,公司,30.64372757,114.391846,9422,7
1037,武汉平安雅庭装饰(青山总部),和平大道康馨大厦,公司,30.63147577,114.3783577,9424,7
1038,武汉惠心源工贸公司,和平大道1284中银大厦21E,公司,30.63615517,114.3858378,9426,7
1039,武汉源中源财务咨询公司,和平大道1284中银大厦16D,公司,30.63615416,114.3858378,9427,7
1040,武汉武钢新东方经济发展有限责任公司,建设六路2,公司,30.64138048,114.3877051,9428,7
1041,艾迪尔工贸安装工程公司,和平大道1284中银大厦12e,公司,30.63615517,114.3858378,9435,7
1042,武汉钢铁集团经营开发公司,红钢二街16,公司,30.64322962,114.3905061,9438,7
1043,武汉润通物业管理公司,和平大道1284中银大厦9层,公司,30.63615517,114.3858378,9443,7
1044,新粤汉装饰,湖北省武汉市青山区罗家港东绿景苑港东名居3栋1层17号房,公司,30.60619773,114.3648251,9447,7
1045,武汉浩普工贸公司,和平大道1284中银大厦11E,公司,30.63615416,114.3858378,9450,7
1046,湖北海旅百事通国际旅行社有限公司奥山世纪城门市部,园林巷与和平大道交叉处附近,公司,30.61843387,114.3576628,9458,7
1047,武汉宇恒物流有限公司,和平大道1284中银大厦10D,公司,30.63615439,114.385838,9467,7
1048,武汉鑫乐道教育咨询有限公司,和平大道1286号,公司,30.63720034,114.3879049,9484,7
1049,亿安鑫建筑装饰工作室,绿景苑・港东名居旁,公司,30.60615704,114.3645847,9488,7
1050,希格尔传媒,武汉市青山区和平公园东门969号,公司,30.63725446,114.3846681,9490,7
1051,武汉瑞丰置业有限责任公司,钢都花园管理委员会园林路特1号绿景花园内7栋后,公司,30.61221929,114.3670387,9496,7
1052,武汉湘电泵业有限公司(和平街铁机社区卫生服务站东),湖北省武汉市洪山区欣中亚橡胶制品公司(才汇巷西),公司,30.60008544,114.3587129,9502,7
1053,文锦装饰,团结大道1051附8,公司,30.6000512,114.357055,9561,7
1054,武汉青山区交通运输二公司,冶金大道51号,公司,30.63188826,114.4093672,10006,7
1055,武汉宏联鑫物流有限公司,工人村路228号附近,公司,30.63272461,114.4197457,10013,7
1056,百世快运,武汉市青山区,公司,30.63079262,114.4034268,10015,7
1057,飞烁货运,友谊大道935号,公司,30.62180012,114.3988716,10018,7
1058,民安财产保险合作拆检点,北洋桥路西200米,公司,30.63068996,114.4035616,10055,7
1059,华泰保险,冶金一街1附13,公司,30.63565363,114.3871774,10070,7
1060,中国大地财产保险股份有限公司(青山支公司),和平大道1290号青山广场12层,公司,30.63788139,114.3897267,10075,7
1061,经典KTV,湖北省武汉市江夏区普安街,休闲餐饮,30.37399069,114.332292,10361,2
1062,金鼎KTV,湖北省武汉市江夏区江夏大道152附近,休闲餐饮,30.36200712,114.3275549,10362,2
1063,非D董KTV,湖北省武汉市江夏区中南大道,休闲餐饮,30.47760983,114.3799007,10481,2
1064,心语茶吧,武汉市武昌区街道口南路47号,休闲餐饮,30.52628412,114.3379499,10628,2
1065,知音茶友会,湖北省武汉市蔡甸区茂盛路东(近金家6号),休闲餐饮,30.57270724,114.0326057,10722,2
1066,武汉翔林建筑装饰工程有限公司,湖北省武汉市洪山区金尚格量贩KTV(武汉科技大学西),公司,30.44049392,114.2553621,10839,7
1067,红迪量贩式KTV-停车场,武汉市黄陂区巨龙大道,停车场,30.70186293,114.2895836,10863,5
1068,佳运超市,湖北省武汉市新洲区环宇KTV(武汉生物工程学院东),便利店,30.71457777,114.5273854,10876,4
1069,福茂快餐店,湖北省武汉市蔡甸区芒果KTV(福兴一店),中餐,30.43507101,114.0323914,10893,1
1070,9号虾馆(滠口分店),湖北省武汉市黄陂区好声音KTV(天喜生活超市西南),中餐,30.71347967,114.3459186,10898,1
1071,欢聚堂餐厅,湖北省武汉市新洲区非常董事会KTV(武汉生物工程学院南),休闲餐饮,30.71060839,114.5203519,10919,2
1072,慧秀百货超市,湖北省武汉市汉阳区歌莱美量贩式KTV(十里铺建材市场东北),便利店,30.56345544,114.2106791,10940,4
1073,富盟连锁超市全力北店,湖北省武汉市蔡甸区乐漫星量贩式KTV(全力北路南),便利店,30.46465956,114.0699789,10943,4
1074,港式烧腊餐厅(滠口店),湖北省武汉市黄陂区滠口幸福时光KTV(石道线),中餐,30.71596296,114.3483598,10949,1
1075,实惠风味早点,湖北省武汉市黄陂区前川康乐迪量贩KTV(黄陂店)北70米,中餐,30.87538096,114.3618943,10966,1
1076,塘口淮南牛肉汤,湖北省武汉市武昌区博金年代量贩式KTV(湖北大学西北),中餐,30.58193589,114.3251578,10974,1
1077,中国太平洋保险(集团)股份有限公司(钟南街),湖北省武汉市新洲区阳逻欢乐谷量贩式KTV西(钟南街),公司,30.6607795,114.5583626,10993,7
1078,联合一百中意超市,湖北省武汉市江夏区藏龙岛科技园聚乐部KTV,便利店,30.43134996,114.4418851,11001,4
1079,蒙古烤羊腿,湖北省武汉市黄陂区盘龙城佳海工业园宋岗一路尊享ktv旁朝天门隔壁,中餐,30.73472021,114.235298,11028,1
1080,江城食府(江城壹号店),湖北省武汉市~口区古田江城壹号文化创意产业园唱响神州KTV,中餐,30.60049443,114.205855,11031,1
1081,联创方圆物流(舵落口二部),湖北省武汉市东西湖区楚天柠檬树商务量贩KTV西,公司,30.62082314,114.1463652,11037,7
1082,景宜轩,武汉市青山区锦绣龙潭北门,休闲餐饮,30.62742209,114.3799411,11210,2
1083,海圣雅轩,冶金一街6附4号,休闲餐饮,30.63539274,114.3912368,11247,2
1084,海胜茶社,恩施街28附13号,休闲餐饮,30.6234801,114.3938269,11285,2
1085,杰克茶室,恩施街28附6号,休闲餐饮,30.62344701,114.3933679,11363,2
1086,武汉华夏天星影院管理有限公司,湖北省武汉市青山区青城国际旁,公司,30.62875723,114.3739551,11435,7
1087,红旗酒店(友谊大道店),厂前自建一村6,中餐,30.62078896,114.4296028,11505,1
1088,丽豪公寓(武汉站店),"白马馨居2期2栋903号,近和谐路",中餐,30.60486539,114.4216804,11727,1
1089,食全鹈谰频(和平大道店),湖北省武汉市青山区和平大道1091号,中餐,30.64594085,114.4085723,11797,1
1090,武钢重工集团,厂前街青王路10号,公司,30.6105759,114.4308951,11864,7
1091,武汉宝德机电有限责任公司,冶金大道65号,公司,30.63077266,114.4148798,11868,7
1092,武汉钢铁建工集团,武汉市冶金大道122号,公司,30.62682489,114.4231969,11869,7
1093,武汉腾盛环保设备工程有限公司,工人村都市工业区内,公司,30.6360952,114.4256498,11871,7
1094,武汉慧民热镀成套设备有限公司,青山区工人村都市工业园(南)C-5号,公司,30.63291974,114.4246277,11872,7
1095,武汉保华石化新材料开发股份有限公司,工人村路都市工业园B区10号,公司,30.63424152,114.423719,11875,7
1096,武汉钢铁股份有限公司设备管理部,厂前街青王路10号,公司,30.60663256,114.4343733,11876,7
1097,武汉鑫亚仓库,武汉市青山区保华路,公司,30.6367203,114.4245916,11877,7
1098,武汉武钢华新水泥有限责任公司,工人村路239号,公司,30.6388926,114.4258529,11878,7
1099,中国一冶集团有限公司交通工程公司,中国一冶高新技术产业园3号厂房,公司,30.62343062,114.4306536,11889,7
1100,武汉唯特特种电机有限公司,开发区工人村路都市工业园南d区1号,公司,30.63456161,114.4214259,11890,7
1101,武汉钢讯网络工程有限责任公司,湖北省武汉市青山区随州街11附56附近,公司,30.62796898,114.4046043,11892,7
1102,湖北星桥旅行社,红钢城青扬十街4栋,公司,30.64354167,114.3958342,11896,7
1103,武汉埃瑞特机械制造有限公司,湖北省武汉市青山区东湖高新区青山环保科技园油坊岭特2号,公司,30.62559561,114.4090442,11900,7
1104,钢实银泉冶金炉料公司,工人村路226,公司,30.63105828,114.4195337,11903,7
1105,志飞广告有限公司,和平大道1095附17,公司,30.64526937,114.4123295,11904,7
1106,武汉阀门水处理机械公司,湖北省武汉市冶金大道64号,公司,30.63144133,114.4083334,11906,7
1107,楠姆庙车站仓库,湖北省武汉市青山区兰剑集团胜赢驾校楠姆庙大型训练基地,公司,30.63206485,114.4107061,11908,7
1108,武汉神焰热工设备有限公司,湖北省武汉市青山区环厂北路工人村都市工业区三号门附近,公司,30.63813444,114.422299,11911,7
1109,武汉钢实金源工业发展有限公司,松柏路西50米,公司,30.62706237,114.4154037,11913,7
1110,武汉一冶水泥厂,冶金大道,公司,30.62978499,114.4213493,11916,7
1111,海旅百事通国际旅行社(工业二路门市部),工业二路26,公司,30.62506848,114.3902969,11917,7
1112,中试机加工车间,北洋桥路与杨春湖路交叉口东北100米,公司,30.62438768,114.4084424,11918,7
1113,武汉市宏升恒通运输公司,湖北省武汉市青山区工人村路226,公司,30.63085587,114.4189532,11921,7
1114,武汉添艺宸创意设计有限公司,冶金大道387-001号(华荣调剂市场),公司,30.62320721,114.4289724,11927,7
1115,绿地集团,工人村街道建设十一路,公司,30.6439676,114.416267,11931,7
1116,武钢工程技术集团自动化公司,冶金大道12附4号高新科技园,公司,30.63380389,114.390277,11932,7
1117,武汉冶金建筑研究院耐热砼联营生产厂,工人村都市工业区内,公司,30.6363182,114.4258246,11935,7
1118,青山花木公司,和平大道1550,公司,30.64257638,114.3989581,11938,7
1119,武汉千锤百炼管道装备有限公司,冶金大道钢城华荣市场105号,公司,30.62230091,114.4283855,11939,7
1120,中国国际旅行社(青山店),和平大道1087附6,公司,30.64274751,114.3980467,11942,7
1121,武汉市新楚园林工程有限公司,武汉市青山区沿港路9号,公司,30.63870926,114.3979401,11943,7
1122,凯丰达经贸有限公司,湖北省武汉市青山区厂前华荣宾馆(武汉冶金大道店)西,公司,30.62235035,114.4285951,11949,7
1123,武汉市华威建筑材料开发有限公司,湖北省武汉市青山区冶金大道诚信机械加工厂西50米,公司,30.62895377,114.4191313,11962,7
1124,武钢建工集团建设分公司电装工程处,武汉市青山区冶金大道104号,公司,30.62705887,114.422384,11963,7
1125,恩泽咨询服务部,冶金大道与友谊大道交叉口西150米,公司,30.62075993,114.4296888,11968,7
1126,武汉方宇环保科技有限公司,湖北省武汉市青山区三环线与冶金大道交叉口北200米,公司,30.63148805,114.4181046,11980,7
1127,青山区城市管理《执法》局汽车队,滨港路,公司,30.63009353,114.4050502,11991,7
1128,武汉市青山区青园绿化公司,武汉市青山区沿港路13号,公司,30.63759974,114.3980172,11997,7
1129,武钢交通运输有限责任公司,冶金大道14附2,公司,30.63219362,114.3924691,11998,7
1130,武汉浩业公司,工业二路17附7,公司,30.62907562,114.3907874,12003,7
1131,武汉鹏诚机电设备有限公司,湖北省武汉市青山区楠姆社区东区东南(随州街南),公司,30.62626313,114.4055913,12007,7
1132,武钢物业管理公司冶金街物业管理分公司,鄂州街7,公司,30.63124465,114.3908572,12010,7
1133,武汉钢铁公司实业公司焊管总厂,松柏路东50米,公司,30.62698626,114.4168823,12012,7
1134,武汉欣星宇模型展示有限公司,湖北省武汉市青山区热电小区西南60米(建设五路东),公司,30.638768,114.3866406,12018,7
1135,武汉鑫宏达商贸有限公司,和平街道友谊大道1399号厂前钢材市场658号,公司,30.62303433,114.4155375,12019,7
1136,武汉中正方圆科技有限公司,冶金大道54号火炬大厦11层1101,公司,30.63204166,114.4041004,12020,7
1137,韵达快递(青山红钢城公司),湖北省武汉市洪山区友谊大道工业三路东方雅园15-5,公司,30.61396034,114.394859,12048,7
1138,湖北安杰消防工程有限公司,湖北省武汉市洪山区友谊大道联盟路消防市场903号,公司,30.60760439,114.358141,12065,7
1139,武汉源发实业有限公司,和平大道949附17,公司,30.62657055,114.3692753,12079,7
1140,武汉皓元环境污染治理有限公司,和平大道1244号安环院科技园1层,公司,30.62229932,114.3640859,12085,7
1141,康辉假日旅行社(钢花门市部),辽宁街13,公司,30.6219884,114.3744852,12092,7
1142,武汉清澄网络咨询有限公司,和平大道1244号安环院科技园2层,公司,30.62230137,114.3640799,12096,7
1143,武汉钢城税务师事务有限责任公司,湖北省武汉市青山区和平大道民族新村(奥山世纪城附近),公司,30.61929408,114.3578954,12107,7
1144,易游天下国旅(金鹤园门市部),湖北省武汉市青山区金鹤园小区79幢(北洋桥路北),公司,30.61009618,114.3717484,12111,7
1145,武汉中国旅行社,湖北省武汉市武昌区武汉理工大学心理健康教育中心,公司,30.61001275,114.3543369,12119,7
1146,交通企业管理杂志社,湖北省武汉市武昌区和平大道1178号武汉理工大学余家头校区附近,公司,30.60903339,114.3536477,12129,7
1147,武汉钧越贸易有限公司,和平大道1244号安环院科技园6层,公司,30.62229437,114.3640779,12133,7
1148,港口装卸杂志社,武汉理工大学余家头校区内,公司,30.61092479,114.3524192,12134,7
1149,武汉斯考根海员培训咨询有限公司,湖北省武汉市武昌区友谊大道武汉理工大学余家头校区27号楼,公司,30.61043046,114.351986,12166,7
1150,工人村都市工业区-研发创业基地,湖北省武汉市青山区保华路,公司,30.63411871,114.4239919,12358,7
1151,华中影视文化产业基地,武汉市新洲区,公司,30.63714472,114.5934192,12374,7
1152,武船双柳装备制造基地,湖北省武汉市新洲区武船双柳装备制造基地(112省道),公司,30.59284292,114.6648642,12386,7
1153,华工科技园现代服务业基地,武汉市大学园路13号-1,公司,30.45599347,114.3955059,12389,7
1154,国家数字出版基地,湖北省武汉市汉阳区蔷薇路华中智谷东北350米,公司,30.51422517,114.1960695,12394,7
1155,武汉经济技术开发区花卉基地,武汉市蔡甸区神龙大道,公司,30.49198867,114.1836417,12397,7
1156,地球空间信息产业服务外包基地,武大园路5-1号,公司,30.46019038,114.4047439,12407,7
1157,大学生创新创业基地,湖北省武汉市洪山区团结路,公司,30.48882123,114.3022569,12408,7
1158,超大现代农业(武汉基地),湖北省武汉市新洲区超大现代农业武汉基地(112省道),公司,30.59750591,114.6787213,12414,7
1159,武汉市江汉二桥体育训练基地,琴台路500-518号,公司,30.57238939,114.213891,12444,7
1160,东西湖区青少年摔跤训练基地,五环大道105,公司,30.63523695,114.1298414,12454,7
1161,武汉长江新港物流项目基地,湖北省武汉市新洲区汉施公路华中钢铁交易中心,公司,30.71021761,114.5250415,12471,7
1162,华中(刺绣)科技文化产业集群基地,南郊路附近,公司,30.45082766,114.2324849,12483,7
1163,长江航道测绘基地,武汉市汉阳区汉南路26号,公司,30.56333901,114.2652991,12537,7
1164,汇春现代农业科技产业园,湖北省武汉市东西湖区东山办事处街道湖陈线南,公司,30.75076854,114.0148857,12541,7
1165,瑶台村养殖基地,湖北省武汉市黄陂区S1(岱黄高速),公司,30.84322898,114.3290346,12576,7
1166,黄鹤楼茶叶基地,湖北省武汉市江夏区纸贺路,公司,30.13498628,114.3508127,12580,7
1167,华顶工业园-全民创业基地,兴盛路224,公司,30.33708015,114.0900585,12587,7
1168,桃园水乡素质拓展基地,湖北省武汉市江岸区香港路香江宾馆2018室,中餐,30.60488329,114.2816136,12691,1
1169,浙江绿峰绿化花木基地,湖北省武汉市洪山区东湖休闲农庄(青王路西),公司,30.52338016,114.4605221,12725,7
1170,高科伟业废旧橡胶基地,湖北省武汉市江夏区江夏藏龙岛科技园平安光谷春天,公司,30.44128122,114.4314395,12727,7
1171,腾讯创业基地,武汉职业技术学院东区附近,公司,30.48555684,114.4054027,12749,7
1172,梁子湖升华码头螃蟹养殖基地,湖北省武汉市江夏区升华码头西北60米,公司,30.32626383,114.586778,12756,7
1173,湖北丰华观光农业摄影基地,湖北省武汉市黄陂区大潭原种场黄武公路大众驾校附近,公司,30.81018624,114.4125214,12771,7
1174,蔡甸区摔跤训练基地,湖北省武汉市蔡甸区树藩体育馆(树藩大街北),公司,30.58134159,114.0203556,12788,7
1175,凯通物流(武汉基地),武汉市东西湖区汇通路,公司,30.63362454,114.0362114,12795,7
1176,武汉・中国光谷显示产业基地,湖北省武汉市洪山区・中国光谷显示产业基地,公司,30.51773673,114.6048309,12801,7
1177,武汉市格韵园林基地,江夏大道附近,公司,30.3776162,114.3604103,12802,7
1178,蔡甸区武术举重训练基地,湖北省武汉市蔡甸区文兴路树藩体育馆北(蔡甸技校东北),公司,30.58171903,114.0205062,12811,7
1179,光大塑胶常福基地,武汉市蔡甸区西牛一街14,公司,30.43280651,114.0456382,12812,7
1180,武汉市广地农业科技有限公司,湖北省武汉市蔡甸区永安街道李家台,公司,30.44717713,113.9330401,12825,7
1181,武汉蓝焰物流基地-7栋,武汉市~口区古田二路,公司,30.6235537,114.1956701,12842,7
1182,武汉融威押运保安服务有限公司,沌口经济开发区耀华路43号,公司,30.48338644,114.1608171,12843,7
1183,武汉金银湖运营基地,金银湖街道金银湖航天路9号中国电信金银湖运营基地电信大楼,公司,30.64886382,114.1950403,12886,7
1184,六顺衡器生产基地,湖北省武汉市东西湖区慈惠街道九通路武汉中小企业城东门,公司,30.60764741,114.1142314,12889,7
1185,盛辉物流集团(湖北仓储基地),湖北省武汉市东西湖区田园大道高桥三路公交站南50米,公司,30.63350064,114.0561559,12907,7
1186,国家级创业孵化示范基地,湖北省武汉市洪山区二环线武汉理工大学马房山校区东院,公司,30.52535067,114.3468885,12909,7
1187,武汉雨田工业研发基地,安堡路与081乡道交叉口东100米,公司,30.45349386,113.9267839,12917,7
1188,海峡科技创业基地-地下停车场,武汉市东西湖区七雄南路8号,停车场,30.6159125,114.1224808,12960,5
1189,湖北煤炭应急储备基地,湖北省武汉市汉阳区沌口路,公司,30.48592004,114.2197712,13014,7
1190,江西泰顺彩板加工基地武汉集散中心,湖北省武汉市东西湖区田园街吉人工业园不锈钢建材市场,公司,30.62514442,114.1051419,13034,7
1191,卓尔总部基地-综合服务中心,湖北省武汉市黄陂区巨龙大道28号附近,公司,30.70124612,114.2919225,13067,7
1192,耐火材料厂,湖北省武汉市青山区武钢集团公司二十一号公路耐火材料厂,公司,30.63933128,114.4473511,13105,7
1193,武钢实业印刷总厂,湖北省武汉市青山区建设九路剑锋御花园(三街社区附近),公司,30.64687928,114.4009023,13108,7
1194,青山区青山人防构件厂,工人村一村,公司,30.64108935,114.4215936,13109,7
1195,武钢实业印刷总厂印刷厂(二分部),湖北省武汉市青山区建设十路武汉市二轻工业学校西北,公司,30.63460242,114.405519,13110,7
1196,财源门窗制造厂,厂前路附近,公司,30.61161541,114.4316375,13111,7
1197,青山工人村都市工业园,湖北省武汉市青山区工人村路241,公司,30.64335353,114.4190753,13112,7
1198,武汉川云工业园,武汉市青山区青化路10号,公司,30.59624902,114.4657271,13119,7
1199,中国长江航运集团青山船厂,向阳路16,公司,30.65805183,114.4352006,13120,7
1200,武钢金冶协力厂特种清洗防腐分厂,武汉钢实东磁磁材有限公司附近,公司,30.60522856,114.4392852,13121,7
1201,武丰光大工业园,武丰大道与仁和路交叉处附近,公司,30.60404799,114.3844612,13122,7
1202,武汉一冶钢结构有限责任公司空间结构分公司,工业园路/青王路(路口)东150米,公司,30.60073553,114.4350562,13124,7
1203,青山区市政工程总公司预制厂,湖北省武汉市青山区长青路57,公司,30.65790387,114.4226134,13125,7
1204,中国石化(武汉化学工业区建设卫生院南),湖北省武汉市洪山区建设乡政府斜对面,加油站,30.65498159,114.4566053,13126,6
1205,新集工业园,湖北省武汉市洪山区八吉府街办事处焦沙路新集工业园,公司,30.66121933,114.4738128,13127,7
1206,中南地区阀门水处理机械工业园,冶金大道64,公司,30.63144133,114.4083334,13143,7
1207,青山国家创业中心工业园孵化基地,湖北省武汉市青山区青发路,公司,30.63005346,114.4217905,13144,7
1208,武东科技发展工业园,湖北省武汉市青山区武东科技发展工业园(武鄂高速公路),公司,30.59602037,114.4592895,13145,7
1209,武汉化学工业区,八吉府大街与青化路交叉口东北50米,公司,30.61057412,114.5013377,13146,7
1210,青山・钢谷电子商务产业园-15栋1号楼,青山・钢谷电子商务产业园15栋1号楼,公司,30.65547878,114.4211985,13170,7
1211,武汉日月新工业园,青化路万家咀10号附1号,公司,30.59755702,114.465619,13173,7
1212,青山大学生科技创业园,湖北省武汉市青山区工人村青山区钢城第四小学(工人村三路西),公司,30.64603714,114.4156877,13174,7
1213,虹蔚青年孵化器,湖北省武汉市青山区本溪街青城国际西50米,公司,30.62774459,114.3724556,13179,7
1214,型材工业园,二十一号公路附近,公司,30.64839388,114.4246986,13180,7
1215,建企工业园,环厂北路附近,公司,30.63803564,114.4228367,13187,7
1216,金运激光,湖北省武汉市江岸区石桥一路6号金运大厦,公司,30.62848047,114.2721027,13470,7
1217,银海商务大厦,武汉市江汉区江汉二路2号(与前进五路交汇处),公司,30.58312015,114.2827666,13574,7
1218,花桥集团大厦停车场,湖北省武汉市江岸区花桥发展大道高才里(竹叶新村东100米),停车场,30.62568086,114.2799363,13690,5
1219,和谐家园(向阳大街),湖北省武汉市黄陂区向阳大街283号,中餐,30.87431706,114.3611821,14095,1
1220,安顺家园-停车场,湖北省武汉市武昌区中北路97号附近,停车场,30.55584074,114.331917,14112,5
1221,中青网络家园,三弓路2附11附近,公司,30.62403919,114.3616575,14348,7
1222,刘来君麻辣烫(马甸店),粮道街办事处中山路277号中铁大厦1305室,中餐,30.54979505,114.3126958,14389,1
1223,轻汽大院,武汉汉阳区汉阳大道683号,中餐,30.56168757,114.2078431,15234,1
1224,鹦鹉大院,马鹦路综合市场内,中餐,30.53911575,114.2572202,15250,1
1225,合纤大院,紫阳街办事处梅隐寺61号,中餐,30.5254254,114.3024102,15254,1
1226,乔家大院(八一路店),湖北省武汉市武昌区八一路123号,中餐,30.53976861,114.3408578,15291,1
1227,社家大院农家菜,湖北省武汉市黄陂区汉口北大道新汉正街附近,中餐,30.7067347,114.319085,15303,1
1228,何家大院(北城路),武汉市汉阳区北城巷117号,中餐,30.55179731,114.2651691,15322,1
1229,武汉康基恒业科技有限公司(石化大院北),武汉市武昌区中南路10号鹏程时代翡翠座26层-26号,公司,30.53882855,114.3274359,15334,7
1230,鑫汪农家大院(丹水池店),"江岸区解放大道2022号附3(堤角方向,“丹水池站”附近)",中餐,30.65107631,114.3267886,15346,1
1231,张家大院,三店加油站背后一百米,中餐,30.92780264,114.7847991,15356,1
1232,鑫汪农家大院(江夏北华街店),近郊北华街30号(区委党校内),中餐,30.36148973,114.3157513,15359,1
1233,石家大院,武汉近郊近郊广电局旁,中餐,30.82768218,114.7983077,15361,1
1234,孙家大院(武广店),解放大道武汉广场7楼,中餐,30.58296338,114.2644635,15363,1
1235,武汉市关东月商贸有限公司(石化大院北),中南路10号鹏程时代翡翠座23层20,公司,30.53882848,114.3274356,15365,7
1236,武汉应达科技有限公司(石化大院北),中南路10号鹏程时代翡翠座11层25,公司,30.53882855,114.3274359,15385,7
1237,何家大院(湖经店),藏龙岛梁山头商业街三排E8号,中餐,30.42332663,114.4249014,15386,1
1238,三丰大院(三丰石油城店),东风大道982号三丰石油城内,中餐,30.45497975,114.0660586,15387,1
1239,农家大院(彭刘杨路),彭刘杨路232号首义园内,中餐,30.54150028,114.2977753,15388,1
1240,鲁巷电信大院内部停车场,武汉市洪山区G316,停车场,30.50972054,114.389715,15390,5
1241,湖北广电国际旅行社汉口大院店,万松街办事处解放大道1223号(武汉广播电视台院内),公司,30.58403634,114.2648918,15468,7
1242,万家大院农家菜,光谷大道万科魅力之城127号,中餐,30.45022284,114.4340861,15487,1
1243,CoCo都可茶饮(武广店),湖北省武汉市江汉区解放大道684附59号,休闲餐饮,30.58216337,114.2617871,15504,2
1244,武汉越秀人力资源服务有限公司(广播大院西北),解放大道557号中山广场18层1828室,公司,30.58353206,114.2619473,15508,7
1245,武汉典艺艺术雕塑厂,湖北省武汉市黄陂区武湖正北街与武黄路交叉处附近(原溜冰场大院内),公司,30.70645501,114.4104099,15517,7
1246,武汉市陂商投资有限公司,黄陂区政府大院内,公司,30.88534698,114.3725838,15518,7
1247,武汉天惠会计师事务有限责任公司(石化大院北),中南路10号鹏程时代水晶座23层-08,公司,30.53882855,114.3274359,15520,7
1248,迎春副食,武汉广场对面公馆KTV1楼大门口迎春副食,中餐,30.58383798,114.2642444,15530,1
1249,省建材大院-停车场,中南一路45号,停车场,30.54160137,114.3237318,15531,5
1250,深圳市金凤凰建筑装饰设计公司武汉办事处,湖北省武汉市汉阳区龟北路3号银翰大院,公司,30.55823744,114.2662198,15532,7
1251,小胡鸭(唐蔡社区三峡大院西),新华下路410号武汉全国服装贸易中心一层(肯德基与农业银行之间),中餐,30.6206323,114.2661536,15548,1
1252,武汉福卡迪汽车技术有限公司,经济技术开发区珠山湖大道206号武汉东风银通实业有限公司(车辆物流大院内),公司,30.46778358,114.1328458,15570,7
1253,江汉区万松街凌云社区-停车场,武汉市江汉区万松街办事处建设大道417号凌云大院内凌云公寓二楼(篮球场后)附近,停车场,30.58981143,114.2430365,15606,5
1254,武汉雷光防雷有限公司,东湖东路3号气象局大院,公司,30.51828076,114.3914105,15615,7
1255,猴子特色烧烤,罗汉寺罗研线武汉天成大院养心斋,中餐,30.95515277,114.3020417,15628,1
1256,喜子靠杯烧烤店,罗汉寺罗研线武汉天成大院养心斋,中餐,30.95515569,114.3020796,15629,1
1257,啡你莫属咖啡吧,惠济二路5号(国税局大院内),休闲餐饮,30.61604639,114.2841615,15635,2
1258,佳仕盟仓库,珞狮南路116号航天大院,公司,30.52748291,114.3459863,15640,7
1259,千湖鱼王餐厅,彭刘杨路237号湖北省水产局大院内,中餐,30.54265533,114.294393,15646,1
1260,海大旅行社,合作路51号电信大院内,公司,30.58913689,114.2904206,15658,7
1261,武汉ETC二七服务中心,湖北省武汉市江岸区解放大道武汉二七纪念馆东100米,公司,30.63819911,114.3192847,16528,7
1262,湖北省博物馆-停车场,武汉市武昌区东湖路160号湖北省博物馆内,停车场,30.56465962,114.3588623,16579,5
1263,~口民族工业博物馆-停车场,湖北省武汉市~口区古田一路~口民族工业博物馆,停车场,30.60853934,114.1867194,16595,5
1264,辛亥革命博物馆大客车北区停车场,湖北省武汉市武昌区武珞路特1号首义广场,停车场,30.54112848,114.2990082,16606,5
1265,楚天181文化创意产业园-车库,湖北省武汉市武昌区佳和艺术博物馆(楚天传媒大厦西南),停车场,30.56802798,114.3597179,16623,5
1266,楚天181文化创意产业园-5号楼,湖北省武汉市武昌区佳和艺术博物馆(楚天传媒大厦西南),公司,30.56869365,114.359062,16628,7
1267,多多超市(博物大道),湖北省武汉市新洲区博物大道新洲博物馆西南150米,便利店,30.84548852,114.8133555,16639,4
1268,中天金融集团,湖北省武汉市江汉区利济北路湖北地质博物馆南50米,公司,30.58079887,114.2624276,16646,7
1269,厨道,湖北省武汉市江汉区金贸大厦东南(武汉博物馆东),中餐,30.61460512,114.2536175,16650,1
1270,汉味牛肉粉,湖北省武汉市江夏区金龙大街铁盾书画艺术博物馆附近,中餐,30.38039774,114.2437942,16669,1
1271,汉阳铁厂,湖北省武汉市汉阳区琴台大道169号张之洞与汉阳铁厂博物馆,公司,30.56400293,114.235733,16693,7
1272,武汉革命博物馆游客中心,湖北省武汉市武昌区解放路467号(近司门口)武昌廉政文化公园,公司,30.5534571,114.2936089,16697,7
1273,武汉泰天工程机械有限公司,湖北省.武汉市解放大道2499号二七纪念馆旁,公司,30.63705373,114.3197401,16720,7
1274,良品铺子(徐州新村店),武汉市~口区解放大道二七新村徐州四村1栋1楼9号商铺,中餐,30.57755958,114.2406402,16723,1
1275,施洋烈士墓,武珞路509,公司,30.53558797,114.3315624,16740,7
1276,湖北七八九化工有限公司,葛洲坝国际广场7栋(常青路与青年路交汇武汉市博物馆对面),公司,30.610181,114.2543608,16756,7
1277,一品味庄(体育街),武昌区首义园辛亥革命博物馆体育街(工商银行旁),中餐,30.5416081,114.2984375,16789,1
1278,楚天粤海国际大酒店-香榭西餐厅,武昌区东湖路181号楚天粤海国际大酒店内(近省博物馆),休闲餐饮,30.56691315,114.3581465,16808,2
1279,武汉大田影视文化传播有限公司,青年路528号葛洲坝国际广场1栋2501室(青年路市博物馆对面),公司,30.61116946,114.2554341,16820,7
1280,武汉市堤角都市工业区服务中心,解放大道2855号武汉汽车车身附件研究所附近,公司,30.66824057,114.3322707,16912,7
1281,江汉区人力资源服务中心,天门墩路7号,公司,30.60784058,114.270029,16919,7
1282,SBI网商孵化器企业电子商务服务中心,湖北省武汉市洪山区路德怡酒店东北100米,公司,30.50331562,114.4118899,16955,7
1283,武汉安兴伟业装饰工程有限公司,茂源街1附37,公司,30.57663629,114.0290928,16957,7
1284,汉口北创新创业人才服务中心,四季美果蔬市场内,公司,30.717,114.3367768,17018,7
1285,武汉新然天然气服务中心,武汉市新洲区阳光丽景a栋,公司,30.83262652,114.8025249,17075,7
1286,武汉市新洲区人才服务中心(鄂东人才市场),湖北省武汉市新洲区武汉市第二高级技工学校西,公司,30.82980354,114.8140571,17088,7
1287,申祥鑫海科技有限公司,湖北省武汉市蔡甸区全力一路幸福公寓7区附近,公司,30.46794465,114.0929865,17131,7
1288,武汉轨道交通线网管理服务中心-C幢,武汉轨道交通线网管理服务中心C幢,公司,30.58660688,114.3616887,17132,7
1289,武汉轨道交通线网管理服务中心-B幢,武汉轨道交通线网管理服务中心B幢,公司,30.58606384,114.3612073,17136,7
1290,物业服务中心,武汉市洪山区长城坐标城9区,公司,30.48079374,114.405718,17240,7
1291,黄陂区前川新城工业园企业服务中心,湖北省武汉市黄陂区前川街道油岗黄土公路同联顺工业园,公司,30.90067391,114.3530856,17329,7
1292,慧祥信息服务中心,湖北省武汉市新洲区中商棉纺厂内及地宫小巷里走100米华阳旁,公司,30.66814445,114.5635716,17465,7
1293,麦当劳(展览馆餐厅),武汉市江汉区解放大道696号汉商武展购物中心B1,休闲餐饮,30.58359082,114.2684731,17690,2
1294,怡路阳光儿童乐园,湖北省武汉市黄陂区前川百秀街香域华府,便利店,30.88742748,114.3642897,17889,4
1295,东部购物公园-C7栋,湖北省武汉市江岸区东部汉口购物公园,购物中心,30.62563712,114.310774,18084,3
1296,东部购物公园-C8栋,湖北省武汉市江岸区东部汉口购物公园,购物中心,30.62670544,114.3108013,18098,3
1297,东部购物公园-C5栋,湖北省武汉市江岸区C2时尚广场(二七路地铁站西南),购物中心,30.62583104,114.3112093,18118,3
1298,东部购物公园-C4栋,湖北省武汉市江岸区C2时尚广场(东部汉口购物公园),购物中心,30.6262776,114.3116832,18134,3
1299,东部购物公园-C9栋,湖北省武汉市江岸区C2时尚广场(东部汉口购物公园北),购物中心,30.62687137,114.3108828,18150,3
1300,长乐园陵园,湖北省武汉市黄陂区黄陂大道六指街群乐村,公司,30.88460673,114.4377135,18185,7
1301,武汉市后襄河公园管理处,常青路42号,公司,30.61109546,114.2476412,18244,7
1302,中共武钢股份条材总厂退居休总支委员会,建设七路5附5,公司,30.64275375,114.3924761,18350,7
1303,武汉化学工业区清潭湖办事处,湖北省武汉市洪山区土吴路武汉市公安局化学工业区分局,公司,30.57304984,114.5368893,18458,7
1304,海德天物,湖北省武汉市江夏区阳光一路圣宝龙花园东100米,公司,30.40514361,114.3647474,19050,7
1305,武汉莱特纸品有限公司,武汉市江汉区江发路8号,公司,30.62360586,114.2297545,19081,7
1306,武汉银河生态农业公司,湖北省武汉市江夏区法泗街道大路村马法路怡山湾社区,公司,30.15969139,114.1716556,19188,7
1307,宏联电缆,湖北省武汉市蔡甸区玛瑙三路88号,公司,30.45112739,114.0388035,19237,7
1308,武汉三源泵业制造有限公司,武汉市东西湖区惠安大道810号,公司,30.60152707,114.1251417,19241,7
1309,中共派克密封件有限公司支部委员会,武汉市东西湖区朝阳路110号,公司,30.60389,114.1488324,19257,7
1310,武汉汉武集团有限公司,武汉市汉南区汉南大道949号,公司,30.32439518,114.0811887,19267,7
1311,北京凤凰炉热工设备研发基地,保华路与环厂北路交叉口西南100米,公司,30.63821552,114.4225389,19565,7
1312,武汉市民之家-办理出租车证照停车区,湖北省武汉市江岸区兆瑞大道武汉市民之家西门,停车场,30.66286058,114.2885385,19965,5
1313,武汉市桥宏农工贸有限责任公司,湖北省武汉市江夏区大桥村小区(古驿北路东),公司,30.37274913,114.3121599,20344,7
1314,中国大地财产保险股份有限公司,建设十路与红钢三街交叉口西北50米,公司,30.64802465,114.4037296,20681,7
1315,中国邮政储蓄银行(武汉市黄陂区支行)-停车场,湖北省武汉市黄陂区民安街131附近,停车场,30.87126332,114.3698503,20823,5
1316,停车场,湖北省武汉市蔡甸区沌口百业路南(东风大道高架桥东),停车场,30.48610689,114.1498465,20899,5
1317,交通银行武汉东亭支行停车场,湖北省武汉市武昌区东亭湖北省新闻出版广电局交通银行,停车场,30.56867619,114.3558197,20935,5
1318,中国进出口银行湖北省分行停车场,湖北省武汉市武昌区中北路广泽中心兴业银行大厦,停车场,30.5619505,114.3416248,20938,5
1319,武汉农村商业银行(江夏支行)-停车场,湖北省武汉市江夏区纸坊武汉市江夏区民政局(文化大道西),停车场,30.36553255,114.3171038,21800,5
1320,中国产经新闻,洪山路64号湖光大厦5层,公司,30.54797247,114.3458458,21847,7
1321,武汉教育电视台新闻部,中山大道1166号金源世界中心B座24层2401-2404,公司,30.59342758,114.2940796,21851,7
1322,湖北日报传媒集团,武汉市武昌区东湖路181号楚天传媒大厦,公司,30.56960398,114.3605678,21855,7
1323,湖北日报报业集团-新闻前哨编辑部,东湖路181号楚天传媒大厦,公司,30.56960202,114.3605638,21861,7
1324,华中科技大学-新闻中心,珞瑜路1037号华中科技大学,公司,30.51654736,114.4076902,21867,7
1325,一冶工人报社,工业大道3号中国一冶10层,公司,30.62862999,114.38198,21884,7
1326,支点环境艺术设计有限公司(发展大道),江汉区发展大道176号兴城大厦14层,公司,30.61592198,114.2491793,21888,7
1327,湖北日报楚天发行黄陂总站代办处,湖北省武汉市黄陂区前川百锦街金域中央(黄陂广场南门附近),公司,30.87963295,114.3695069,21889,7
1328,武汉大学出版社-读者服务部第二门市部,武汉市洪山区八一路299号武汉大学信息学部内,公司,30.52981145,114.3548146,21891,7
1329,武汉大学出版社物流中心(武大园二路),湖北省武汉市江夏区光谷华工园二路南(武汉大学科技园宏业楼南),公司,30.4547203,114.4008144,21893,7
1330,人民日报社(湖北分社),武汉市武昌区洪山路64号,公司,30.54797147,114.3458448,21894,7
1331,长江日报广告部,武汉市江汉区长江日报路2号,公司,30.60599073,114.2733386,21896,7
1332,长江日报东西湖发行站,武汉市东西湖区南山市场4栋23号,公司,30.62771436,114.1244088,21898,7
1333,《水电与新能源》编辑部,武汉市武昌区八一路299号武汉大学内,公司,30.54506185,114.3568807,21900,7
1334,科技信息快报社,武汉市武昌区洪山路2号湖北科教大厦D座14层,公司,30.54656911,114.3339077,21901,7
1335,武汉晨报广告中心,武汉市江汉区长江日报路2号,公司,30.60528856,114.2742175,21902,7
1336,武汉晚报,江岸建设大道760号,公司,30.61547653,114.2869213,21904,7
1337,武汉理工大学出版社,武汉理工大学马房山校区东院内,公司,30.52447519,114.346732,21905,7
1338,长江报业发行总公司唐家墩发行站,武汉市江汉区长江日报路2号,公司,30.60605806,114.2727144,21906,7
1339,湖北省信息院-亚太传统医药杂志社,武汉市武昌区洪山路2号湖北科教大厦D座5层,公司,30.54657809,114.3339276,21907,7
1340,中国地质大学出版社,湖北省武汉市洪山区鲁磨路426附近,公司,30.52581476,114.3963814,21908,7
1341,武汉出版社,新华路490号,公司,30.61133312,114.2626779,21910,7
1342,长江日报黄陂发行站,金明道94号,公司,30.87847802,114.3601052,21911,7
1343,今古传奇报刊集团(翠柳街),湖北省武汉市武昌区翠柳街1号,公司,30.57213312,114.3624813,21913,7
1344,武汉大学-研究生学报社,武汉市武昌区八一路299号武汉大学内,公司,30.53943917,114.3656519,21914,7
1345,武汉科技报,天津路30号,公司,30.58738303,114.2920112,21916,7
1346,《对外经贸实务》杂志社,湖北省武汉市中北路特1号楚天都市花园B座18层,公司,30.55082701,114.3322995,21917,7
1347,新华社湖北分社-图像采集部,湖北省武汉市武昌区徐东大街356号,公司,30.57443822,114.3651581,21918,7
1348,武汉市黄陂区木兰文化报编辑部,湖北省武汉市黄陂区前川黄陂区老年大学(冰晶江城西),公司,30.88096208,114.3802884,21920,7
1349,武汉大学-期刊社,珞珈山16号武汉大学,公司,30.53613311,114.3526771,21921,7
1350,清华大学出版社(武汉办事处),珞喻路630华乐商务中心19层1910,公司,30.51200936,114.3868784,21922,7
1351,湖北知音传媒公司,武汉市武昌区东湖路171号,公司,30.57392606,114.3628355,21923,7
1352,中国地质大学-安全与环境工程编辑部,湖北省武汉市洪山区中国地质大学南望山庄西南100米,公司,30.52404318,114.3945266,21924,7
1353,武汉财经传媒中心,高雄路15财苑大楼5层,公司,30.59612227,114.285194,21926,7
1354,中国质检出版社武汉发行站,青年路263号,公司,30.60183664,114.2573147,21927,7
1355,湖北日报传媒集团楚天印务,湖北省武汉市江夏区东湖新技术开发区东一产业园流芳园横路1号,公司,30.46393099,114.4457376,21928,7
1356,华中师范大学-教师教育论坛编辑部,湖北省武汉市洪山区珞瑜路152号华中师范大学,公司,30.52043682,114.3594095,21929,7
1357,长江报业发行总公司武汉晚报常青发行站,香樟一路二街4号附近,公司,30.63557627,114.2314362,21931,7
1358,武汉晚报江南工作站,珞喻路456号8层,公司,30.51961989,114.3709573,21932,7
1359,长江日报报业集团-武汉商报社,台北路217海迪商务中心10层,公司,30.605282,114.2710826,21933,7
1360,湖北日报报业集团-爱你编辑部,武汉市武昌区东湖路181号楚天传媒大厦,公司,30.56959304,114.3605538,21934,7
1361,长江报业发行总公司长江日报蔡甸发行站,古井路276号,公司,30.58840531,114.019174,21935,7
1362,英语周报武汉采编部(珞狮路),珞狮路117号华成大厦7层,公司,30.53038171,114.3488828,21937,7
1363,香港大公报(湖北办事处),高雄路166号武汉房地产交易大厦2303室,公司,30.6060739,114.2787612,21938,7
1364,英语周报武汉采编部(友谊大道),友谊大道2号2008新长江广场9层6号,公司,30.55536888,114.312628,21941,7
1365,湖北省商务厅-贸易志编辑部,江汉北路8号金茂大楼9层,公司,30.58983252,114.2783439,21942,7
1366,华夏教育(论坛编辑部),武汉理工大学华夏学院内,公司,30.47019842,114.404479,21943,7
1367,湖北招生考试杂志社,武昌区友谊大道学院路12号,公司,30.5782765,114.3221804,21944,7
1368,长江日报武汉晚报小东门发行站,民主路727号附近,公司,30.54761921,114.3216566,21945,7
1369,华中科技大学(同济医学院)-学报编辑部,航空侧路13号华中科技大学同济医学院图书馆附近,公司,30.58317708,114.2547109,21946,7
1370,《上海证券报》湖北记者站,中南路14号世纪广场B座18层1810,公司,30.5390884,114.3274559,21948,7
1371,楚天报刊发行总公司,东湖路181号楚天传媒大厦B座1层,公司,30.56959658,114.3608435,21950,7
1372,湖北省志・农业志编辑室,武珞路519号湖北农业事业大厦16层,公司,30.53449256,114.3314198,21952,7
1373,湖北预防医学杂志编辑部,卓刀泉北路6号,公司,30.5258047,114.3673816,21953,7
1374,湖北日报报业集团-楚天都市报编辑部,东湖路181号楚天传媒大厦,公司,30.56960629,114.360563,21954,7
1375,长江日报报业集团,长江日报路2号,公司,30.60594814,114.2732396,21955,7
1376,华中农业大学(社会科学版)学报编辑部,狮子山大道附近,公司,30.47577911,114.3471522,21956,7
1377,少儿书画杂志社,青岛路7号国际青年大厦19层,公司,30.58381342,114.2926619,21957,7
1378,华中科技大学-学报编辑部,珞瑜路1037号华中科技大学,公司,30.51421447,114.4124773,21958,7
1379,湖北农机化杂志社,湖北工业大学内,公司,30.47980764,114.3040872,21959,7
1380,财会月刊杂志社,高雄路15财苑大楼1/5层,公司,30.59614025,114.2851777,21960,7
1381,中华工商联合出版社(江汉分社),广八路32号洪山国际企业孵化器珞珈山园8层802,公司,30.53061755,114.3587935,21961,7
1382,华中师范大学化学学院-《中学生理科月刊》编辑部,珞喻路152号华中师范大学档案馆,公司,30.52059613,114.359799,21962,7
1383,九通电子音像出版社,长江崇文广场B座6层,公司,30.51196792,114.3377114,21963,7
1384,湖北日报传媒集团楚天发行总公司武昌征订总站杨园发行站,徐东一路西150米,公司,30.59304409,114.3409129,21964,7
1385,东风汽车公司报社,东合中心b座9层,公司,30.50884392,114.1578865,21965,7
1386,深圳商报驻华中记者站,中北路131同成富苑A座25层,公司,30.5581868,114.3362897,21966,7
1387,湖北少年儿童出版社公司,长江崇文广场B座7-8层,公司,30.51196792,114.3377114,21967,7
1388,上海财经大学出版社(华中事业部),雄楚大街229-1号智源财富中心18层1805,公司,30.51316622,114.3406197,21968,7
1389,科学技术出版社公司,长江崇文广场B座13-14层,公司,30.51196792,114.3377114,21969,7
1390,中国水运报社(洞庭街),一元街办事处沿江大道147号,公司,30.58442187,114.2948254,21970,7
1391,广播电视服务部,钟声路附近,公司,31.21694711,114.372536,21971,7
1392,湖北日报报业集团-三峡晚报编辑部,东湖路181号楚天传媒大厦A座16层,公司,30.56959658,114.3608435,21972,7
1393,中国建设报湖北记者站,中南路12号建设大厦10层,公司,30.54014748,114.3277653,21973,7
1394,爱情婚姻家庭杂志社,珞喻路456号2楼,公司,30.51961989,114.3709573,21974,7
1395,湖北省政府采购协会《政府采购理论与实践》编辑部,民主路786号华银大厦14层,公司,30.54671423,114.3289327,21975,7
1396,同济医院-杂志社,解放大道1095-34,公司,30.58282444,114.2531147,21976,7
1397,中国市场经济报《领导与决策》周刊,洪山路2号湖北科教大厦11层,公司,30.54657809,114.3339187,21977,7
1398,中国文化报驻湖北记者站,中南路街办事处丁字桥路56号,公司,30.52770613,114.3251607,21978,7
1399,科技创业杂志社,洪山路2号湖北科教大厦D座14层,公司,30.54683473,114.3335252,21979,7
1400,中华建设杂志社,中南路12号建设大厦10层,公司,30.54014748,114.3277653,21980,7
1401,新婚消费指南杂志社,解放大道557号中山广场28层2726,公司,30.58398981,114.2644733,21981,7
1402,《软件导刊_教育技术》杂志社,洪山路2号湖北科教大厦B座10层,公司,30.54658478,114.3339275,21982,7
1403,深圳市时代华人投资顾问公司时代华人杂志社湖北办事处,武珞路景观楼大厦11层1112,公司,30.54255951,114.3015835,21983,7
1404,中国人民大学出版社(中南发行部),武珞路114号,公司,30.53830359,114.3069578,21984,7
1405,湖北人民出版社汉口办事处,新育村33,公司,30.58408738,114.2703846,21985,7
1406,湖北年鉴社,放鹰台后,公司,30.55103609,114.34706,21988,7
1407,中南民族大学-学报编辑部,民族大道182号,公司,30.49163623,114.3852207,21989,7
1408,长江文艺出版社汉口办事处,新育村33,公司,30.58372342,114.2705486,21990,7
1409,证券时报湖北记者站,中北路66号金穗大厦18层,公司,30.55408962,114.3355213,21993,7
1410,长江商报新洲发行站,广场街53,公司,30.83179392,114.7963954,21994,7
1411,长江文艺杂志社,翠柳街1,公司,30.57213312,114.3624813,21997,7
1412,新洲问津网编辑部,齐安大道新洲广播电视大楼,公司,30.83095084,114.7985731,21998,7
1413,中国科技企业孵化器年鉴编辑部,创业光谷步行街内,公司,30.50272122,114.4099712,22001,7
1414,怡香海鲜烤虾(蔡甸店),树藩大街604号(新闻中心往建新菜场方向200米),中餐,30.57828715,114.0291956,22006,1
1415,大余湾-婚纱电影制片厂,湖北省武汉市黄陂区大余湾尚书府酒店(梳研公路北),公司,31.02711416,114.3633405,22008,7
1416,湖北电影制片厂,万松园路139,公司,30.58984789,114.2615781,22010,7
1417,天朗咖啡(万松园店),武汉市江汉区万松园路原18,休闲餐饮,30.59011621,114.2619878,22014,2
1418,加油站(武汉市二轻工业学校东),湖北省武汉市冶金大道51号,加油站,30.63176161,114.4096242,22321,6
1419,58街糊汤粉,武汉市青山区和平大道1095附11附近,中餐,30.64554511,114.4158458,22360,1
1420,永和豆浆(湖北武汉高铁店),洪山区杨春湖武汉火车站东出站口,中餐,30.6103757,114.4195902,22361,1
1421,肯德基(钢都餐厅),园林路67附2-3号钢都花园购物广场中百仓储1层,休闲餐饮,30.61597386,114.3628784,22365,2
1422,麦当劳(奥山世纪城餐厅),武汉市青山区和平大道809号奥山世纪广场F1,休闲餐饮,30.61896091,114.3545218,22367,2
1423,麦当劳(青山百货商场餐厅),武汉市青山区和平大道1542号青山百货商场F1,休闲餐饮,30.64142937,114.3967436,22368,2
1424,美好食光,湖北省武汉市青山区长青路246附14,中餐,30.65815622,114.427951,22369,1
1425,正宗兰州牛肉拉面,湖北省武汉市洪山区焦沙路,中餐,30.64299809,114.4528774,22373,1
1426,正宗兰州拉面、刀削面,团结大道,中餐,30.61362568,114.430945,22375,1
1427,郭先生餐厅,康乐路四街坊丽红超市对面,中餐,30.61111314,114.4765661,22376,1
1428,肯德基(奥山世纪广场餐厅),武汉市青山区和平大道809号奥山世纪广场F1,休闲餐饮,30.61894435,114.3548413,22378,2
1429,极速酷客餐厅,东湖生态旅游风景区欢乐大道196号极速世界内,中餐,30.59574857,114.3889028,22379,1
1430,众品香美食(钢都店),三弓路20号2层,中餐,30.6187109,114.3659734,22381,1
1431,馍馍哥,湖北省武汉市青山区青山镇街道长青路武汉石化二生活区,中餐,30.65841747,114.4279251,22382,1
1432,真功夫(武汉欢乐谷店),武汉市洪山区东湖生态旅游风景区欢乐大道196号欢乐谷生态文化广场1楼,中餐,30.59712746,114.3902715,22383,1
1433,佬l特色汤馆,湖北省武汉市青山区长青路71附5号附近,中餐,30.65841747,114.4279251,22385,1
1434,胖子快餐,长青路93附5号附近,中餐,30.65866264,114.4342999,22387,1
1435,1258重庆香辣虾,武昌区武昌和平大道1040号(近武汉理工大学青山校区),中餐,30.61400356,114.3518498,22390,1
1436,三鲜豆皮,湖北省武汉市青山区长青路71附16号附近,中餐,30.65844131,114.4282257,22391,1
1437,派乐汉堡(园林路钢都花园店),三弓路综合商品市场0023号门面(三弓路与南干渠街交汇处),休闲餐饮,30.61884688,114.3656808,22397,2
1438,豪大大香鸡排(奥山世纪城店),武汉市青山区和平大道809号奥山世纪城广场3楼3056号(奇奇乐园后门),休闲餐饮,30.6204798,114.3555513,22398,2
1439,pala派乐汉堡(青山店),祥丰路136号,休闲餐饮,30.61098958,114.3737097,22402,2
1440,鼎食味(奥山世纪城店),武汉市青山区和平大道809号奥山世纪广场B1,中餐,30.61891284,114.3557342,22403,1
1441,兰州拉面,湖北省武汉市洪山区团结大道,中餐,30.60661535,114.379972,22410,1
1442,蚂蚁餐厅,东湖生态旅游风景区欢乐大道196号卡通工厂内,中餐,30.59539645,114.3874641,22411,1
1443,派乐汉堡(理工大学余家头校区店),武汉市武昌区和平大道1040号武汉理工大学余家头校区后门(海虹公寓旁),休闲餐饮,30.60794816,114.3530885,22415,2
1444,福佑斋黄焖鸡米饭(全国连锁理工店),武昌区理工大学余家头校区后门附近,中餐,30.61026004,114.3559146,22418,1
1445,派乐汉堡(理工大学店),联盟路16-15,休闲餐饮,30.6052961,114.3588922,22419,2
1446,派乐汉堡(白玉山店),青山区康美路10,休闲餐饮,30.60873378,114.4804404,22420,2
1447,安庆馄饨,121街坊41门附1,中餐,30.61406109,114.3741133,22421,1
1448,香香早餐,落雁路与青王路交叉口西南100米,中餐,30.59484811,114.4337586,22422,1
1449,麦德乐,奥山世纪城3楼(奇奇乐园后),休闲餐饮,30.61876492,114.356774,22424,2
1450,沙县小吃,湖北省武汉市青山区白玉山街006号,中餐,30.60551544,114.4765766,22428,1
1451,大众自助快餐,湖北省武汉市洪山区欢乐谷东湖建材装饰城10栋-9,中餐,30.59587251,114.3806433,22437,1
1452,蒸好吃(理工大店),武昌区理工大学5号门6号门面,中餐,30.60904166,114.3558537,22441,1
1453,新农至诚牛肉面馆(114街直销店),恩施街1附1,中餐,30.62371385,114.3824581,22444,1
1454,正宗四川麻辣烫酸辣粉,康宁路康达社区(白玉山泰乐物业小区东),中餐,30.61087728,114.4813014,22446,1
1455,兰州牛肉拉面,湖北省武汉市青山区怡江苑102,中餐,30.62425737,114.354285,22451,1
1456,浠水牛肉面,湖北省武汉市青山区白玉山康宁路康宁社区旁,中餐,30.60848409,114.4812474,22458,1
1457,北方饺子,康乐路5附4号附近,中餐,30.61052009,114.4760102,22461,1
1458,成都小吃面粉馆,武钢后勤集团综合服务公司白玉山单管二号院,中餐,30.61051055,114.476011,22464,1
1459,笼笼鲜包子店(红钢三街),红钢三街22附5,中餐,30.64423473,114.3971868,22465,1
1460,味美饺子馆,建设九路8号,中餐,30.64573844,114.3997493,22472,1
1461,肥仔漫听寨,洪山区仁和路168号,中餐,30.60625761,114.3837552,22473,1
1462,聚香源过桥米线,湖北省武汉市武昌区武汉理工大学联盟小区,中餐,30.6111112,114.3550357,22492,1
1463,豆皮、罗氏面窝,湖北省武汉市洪山区铁机路西50米,中餐,30.602824,114.3570971,22510,1
1464,湖南牛肉面馆,建设十一路1091号附近,中餐,30.65000645,114.4102388,22515,1
1465,周黑鸭(建设一路店),湖北省武汉市青山区武钢钢花新村121小区87号门底层,中餐,30.61863378,114.3718075,22523,1
1466,贵哥卤肉卷(奥山世纪城店),武汉市青山区和平大道809号奥山世纪广场B1,中餐,30.61904832,114.3554126,22526,1
1467,天门饺子店,长阳路34号附近,中餐,30.65662506,114.4344391,22527,1
